[{"_id":{"$oid":"5878e844b97e4a09abd6b0d5"},"phone":"0423339895","id":"192138807490203","location":{"city":"Taichung","zip":"413","country":"Taiwan","longitude":120.7001724,"street":"台中市霧峰區民主街69號1樓","latitude":24.0674438},"name":"原私房Garden - 新店請搜尋 糧-私房手作廚房","ontime":{"sun_1_close":"21:00","sat_1_close":"21:00","sun_1_open":"11:00","thu_1_open":"11:00","tue_1_close":"21:00","sat_1_open":"11:00","mon_1_open":"11:00","mon_1_close":"21:00","wed_1_open":"11:00","wed_1_close":"21:00","tue_1_open":"11:00","thu_1_close":"21:00"},"address":"台中市霧峰區民主街69號1樓","lat":24.0674438,"long":120.7001724,"area":"Taichung","city":"Taichung"},{"_id":{"$oid":"5878e844b97e4a09abd6b0d6"},"phone":"02-2771-1016","id":"504276709628927","location":{"city":"Taipei","zip":"106","country":"Taiwan","longitude":121.54521319869,"street":"台北市大安區大安路一段84巷13號2樓","latitude":25.041223121625},"name":"101 kidz club","ontime":{"sun_1_close":"17:00","sat_1_close":"17:00","sun_1_open":"09:00","fri_1_open":"09:00","sat_1_open":"09:00","mon_1_open":"09:00","mon_1_close":"17:00","wed_1_open":"09:00","wed_1_close":"17:00","fri_1_close":"17:00"},"address":"台北市大安區大安路一段84巷13號2樓","lat":25.041223121625,"long":121.54521319869,"area":"Taipei","city":"Taipei"},{"_id":{"$oid":"5878e844b97e4a09abd6b0d7"},"phone":"(02)8101-8800","id":"199601850157178","location":{"city":"Taipei","zip":"110","country":"Taiwan","longitude":121.56480279972,"street":"信義區信義路5段7號89樓","latitude":25.034239},"name":"Taipei 101 Observatory","ontime":{"sun_1_close":"22:00","sat_1_close":"22:00","sun_1_open":"09:00","fri_1_close":"22:00","thu_1_open":"09:00","tue_1_close":"22:00","sat_1_open":"09:00","mon_1_open":"09:00","mon_1_close":"22:00","wed_1_open":"09:00","wed_1_close":"22:00","tue_1_open":"09:00","fri_1_open":"09:00","thu_1_close":"22:00"},"address":"信義區信義路5段7號89樓","lat":25.034239,"long":121.56480279972,"area":"Taipei","city":"Taipei"},{"_id":{"$oid":"5878e844b97e4a09abd6b0d8"},"phone":"07-731-9101","id":"494055423937925","location":{"city":"Kaohsiung","zip":"80454","country":"Taiwan","longitude":120.3661804,"street":"高雄市鳥松區神農路48巷13號","latitude":22.6585197},"name":"101文具天堂總公司","ontime":{"fri_1_close":"18:00","thu_1_open":"09:00","tue_1_close":"18:00","mon_1_open":"09:00","mon_1_close":"18:00","wed_1_open":"09:00","wed_1_close":"18:00","tue_1_open":"09:00","fri_1_open":"09:00","thu_1_close":"18:00"},"address":"高雄市鳥松區神農路48巷13號","lat":22.6585197,"long":120.3661804,"area":"Kaohsiung","city":"Kaohsiung"},{"_id":{"$oid":"5878e844b97e4a09abd6b0d9"},"id":"776529892414314","phone":"0926111488","location":{"city":"Lotung","zip":"266","country":"Taiwan","longitude":121.71727626851,"street":"宜蘭縣三星鄉大埔五路111號","latitude":24.674641021277},"name":"一加一加一","address":"宜蘭縣三星鄉大埔五路111號","lat":24.674641021277,"long":121.71727626851,"area":"Lotung","city":"Lotung"},{"_id":{"$oid":"5878e844b97e4a09abd6b0da"},"phone":"0979056886","id":"713121905441361","location":{"city":"Taipei","zip":"110","country":"Taiwan","longitude":121.56586,"street":"台北市信義區松高路11號5樓","latitude":25.0393599},"name":"123手創館","ontime":{"sun_1_close":"22:00","sat_1_close":"22:00","sun_1_open":"11:00","fri_1_close":"22:00","thu_1_open":"11:00","tue_1_close":"22:00","sat_1_open":"11:00","mon_1_open":"11:00","mon_1_close":"22:00","wed_1_open":"11:00","wed_1_close":"22:00","tue_1_open":"11:00","fri_1_open":"11:00","thu_1_close":"22:00"},"address":"台北市信義區松高路11號5樓","lat":25.0393599,"long":121.56586,"area":"Taipei","city":"Taipei"},{"_id":{"$oid":"5878e844b97e4a09abd6b0db"},"id":"266891310023372","phone":"(02)2332-6131","location":{"city":"Taipei","zip":"100","country":"Taiwan","longitude":121.51104467981,"street":"三元街131號1樓","latitude":25.0282683},"name":"131Fun心玩親子館","address":"三元街131號1樓","lat":25.0282683,"long":121.51104467981,"area":"Taipei","city":"Taipei"},{"_id":{"$oid":"5878e844b97e4a09abd6b0dc"},"phone":"0226191313","id":"169371366457663","location":{"city":"Xinbei","zip":"24947","country":"Taiwan","longitude":121.40501,"street":"八里區博物館路200號","latitude":25.157},"name":"新北市立十三行博物館","ontime":{"sun_1_close":"17:00","sat_1_close":"17:00","sun_1_open":"09:30","fri_1_close":"17:00","thu_1_open":"09:30","tue_1_close":"17:00","sat_1_open":"09:30","mon_1_open":"09:30","mon_1_close":"17:00","wed_1_open":"09:30","wed_1_close":"17:00","tue_1_open":"09:30","fri_1_open":"09:30","thu_1_close":"17:00"},"address":"八里區博物館路200號","lat":25.157,"long":121.40501,"area":"Xinbei","city":"Xinbei"},{"_id":{"$oid":"5878e844b97e4a09abd6b0dd"},"phone":"(03)324-1219","id":"254780404642864","location":{"city":"Taoyüan","zip":"338","country":"Taiwan","longitude":121.29456,"street":"桃園市蘆竹區山腳里大古路288號","latitude":25.04675},"name":"151高地","ontime":{"sun_1_close":"01:00","sat_1_close":"02:00","sun_1_open":"11:00","fri_1_close":"02:00","thu_1_open":"14:00","tue_1_close":"01:00","sat_1_open":"11:00","mon_1_open":"14:00","mon_1_close":"01:00","wed_1_open":"14:00","wed_1_close":"01:00","tue_1_open":"14:00","fri_1_open":"14:00","thu_1_close":"01:00"},"address":"桃園市蘆竹區山腳里大古路288號","lat":25.04675,"long":121.29456,"area":"Taoyüan","city":"Taoyüan"},{"_id":{"$oid":"5878e844b97e4a09abd6b0de"},"id":"244926952374744","name":"雲遊山水-掏金農遊趣 -雲林縣政府廣告"},{"_id":{"$oid":"5878e844b97e4a09abd6b0df"},"id":"917298971691466","phone":"0989472699","location":{"city":"Yilan City","zip":"262","country":"Taiwan","longitude":121.75074577332,"street":"宜蘭縣礁溪鄉龍潭路172巷16號","latitude":24.786744282426},"name":"礁溪龍潭no.16-Lemon Tree-露營區","address":"宜蘭縣礁溪鄉龍潭路172巷16號","lat":24.786744282426,"long":121.75074577332,"area":"Yilan City","city":"Yilan City"},{"_id":{"$oid":"5878e844b97e4a09abd6b0e0"},"phone":"0422311717","id":"1619084875051672","location":{"city":"Taichung","zip":"406","country":"Taiwan","longitude":120.69382,"street":"太原路三段269巷42號","latitude":24.16594},"name":"一起一起繪本廚房","ontime":{"sun_1_close":"21:00","sat_1_close":"21:00","sun_1_open":"10:00","fri_1_close":"21:00","thu_1_open":"11:00","tue_1_close":"21:00","sat_1_open":"10:00","mon_1_open":"11:00","mon_1_close":"21:00","wed_1_open":"11:00","wed_1_close":"21:00","tue_1_open":"11:00","fri_1_open":"10:00","thu_1_close":"21:00"},"address":"太原路三段269巷42號","lat":24.16594,"long":120.69382,"area":"Taichung","city":"Taichung"},{"_id":{"$oid":"5878e844b97e4a09abd6b0e1"},"phone":"0226316950","id":"230314304026798","location":{"city":"Taipei","zip":"114","country":"Taiwan","longitude":121.6118676,"street":"內湖區康寧路三段178號","latitude":25.069166},"name":"178一起吧！ 寶寶食堂、寶寶講堂、寶寶跳跳堂","ontime":{"sun_1_close":"20:30","sat_1_close":"20:30","sun_1_open":"10:30","fri_1_close":"20:30","thu_1_open":"10:30","tue_1_close":"20:30","sat_1_open":"10:30","wed_1_open":"10:30","wed_1_close":"20:30","tue_1_open":"10:30","fri_1_open":"10:30","thu_1_close":"20:30"},"address":"內湖區康寧路三段178號","lat":25.069166,"long":121.6118676,"area":"Taipei","city":"Taipei"},{"_id":{"$oid":"5878e844b97e4a09abd6b0e2"},"phone":"0228625555","id":"553400681429563","location":{"city":"Taipei","zip":"111","country":"Taiwan","longitude":121.54280809828,"street":"士林區國泰街10號","latitude":25.136823361047},"name":"1942餓棧廚房","ontime":{"sun_1_close":"22:00","sat_1_close":"23:00","sun_1_open":"09:00","fri_1_close":"22:00","thu_1_open":"10:00","tue_1_close":"22:00","sat_1_open":"09:00","mon_1_open":"10:00","mon_1_close":"22:00","wed_1_open":"10:00","wed_1_close":"22:00","tue_1_open":"10:00","fri_1_open":"10:00","thu_1_close":"22:00"},"address":"士林區國泰街10號","lat":25.136823361047,"long":121.54280809828,"area":"Taipei","city":"Taipei"},{"_id":{"$oid":"5878e844b97e4a09abd6b0e3"},"id":"305882399514601","phone":"05-2590536","location":{"latitude":23.472180275588,"city":"嘉義縣番路鄉","street":"嘉義縣番路鄉下坑村45之18號","zip":"602","longitude":120.5360691848},"name":"童年渡假村"},{"_id":{"$oid":"5878e844b97e4a09abd6b0e4"},"phone":"066800773","id":"596921280419860","location":{"city":"Paiho","zip":"73343","country":"Taiwan","longitude":120.40805339813,"street":"台南市東山區東正里東勢1-18號","latitude":23.318158768176},"name":"東和蜂文化觀光工廠","ontime":{"sun_1_close":"17:30","sat_1_close":"17:30","sun_1_open":"09:30","fri_1_close":"17:30","thu_1_open":"09:30","tue_1_close":"17:30","sat_1_open":"09:30","mon_1_open":"09:30","mon_1_close":"17:30","tue_1_open":"09:30","fri_1_open":"09:30","thu_1_close":"17:30"},"address":"台南市東山區東正里東勢1-18號","lat":23.318158768176,"long":120.40805339813,"area":"Paiho","city":"Paiho"},{"_id":{"$oid":"5878e844b97e4a09abd6b0e5"},"id":"209273699478317","phone":"0228812512","location":{"city":"Taipei","zip":"111","country":"Taiwan","longitude":121.5298578,"street":"台北市士林區福林路60號","latitude":25.094755},"name":"士林官邸旅客","address":"台北市士林區福林路60號","lat":25.094755,"long":121.5298578,"area":"Taipei","city":"Taipei"},{"_id":{"$oid":"5878e844b97e4a09abd6b0e6"},"phone":"06-9260488","id":"230759550465299","location":{"city":"Penghu","zip":"880","country":"Taiwan","longitude":119.5817323761,"street":"No.12, Wende Rd., Magong City","latitude":23.565254314917},"name":"澎湖親子民宿-獨宿一格","ontime":{"sun_1_close":"20:00","sat_1_close":"20:00","sun_1_open":"08:00","fri_1_close":"20:00","thu_1_open":"08:00","tue_1_close":"20:00","sat_1_open":"08:00","mon_1_open":"08:00","mon_1_close":"20:00","wed_1_open":"08:00","wed_1_close":"20:00","tue_1_open":"08:00","fri_1_open":"08:00","thu_1_close":"20:00"},"address":"No.12, Wende Rd., Magong City","lat":23.565254314917,"long":119.5817323761,"area":"Penghu","city":"Penghu"},{"_id":{"$oid":"5878e844b97e4a09abd6b0e7"},"id":"111227218905685","phone":"03-9513771","location":{"city":"Lotung","zip":"26943","country":"Taiwan","longitude":121.71271227711,"street":"宜蘭縣冬山鄉大進路446巷20號","latitude":24.633763284951},"name":"幸福20號農場","address":"宜蘭縣冬山鄉大進路446巷20號","lat":24.633763284951,"long":121.71271227711,"area":"Lotung","city":"Lotung"},{"_id":{"$oid":"5878e844b97e4a09abd6b0e8"},"id":"368339974858","phone":"089-550-211","location":{"city":"Taitung","zip":"955","country":"Taiwan","longitude":121.12114,"street":"台東縣鹿野鄉永安村永樂路306巷7號","latitude":22.9369},"name":"21國際渡假村","address":"台東縣鹿野鄉永安村永樂路306巷7號","lat":22.9369,"long":121.12114,"area":"Taitung","city":"Taitung"},{"_id":{"$oid":"5878e844b97e4a09abd6b0e9"},"id":"110504469300398","phone":"072819822","location":{"city":"Kaohsiung","zip":"80045","country":"Taiwan","longitude":120.3076706,"street":"新興區仁愛二街75號","latitude":22.6243095},"name":"22秋（Autumn Inn)","address":"新興區仁愛二街75號","lat":22.6243095,"long":120.3076706,"area":"Kaohsiung","city":"Kaohsiung"},{"_id":{"$oid":"5878e844b97e4a09abd6b0eb"},"phone":"02-86353770","id":"251655868287398","location":{"city":"Xinbei","zip":"252","country":"Taiwan","longitude":121.47251626134,"street":"新北市三芝區淺水灣北勢子41-7號","latitude":25.253133063622},"name":"25second","ontime":{"sun_1_close":"22:00","sat_1_close":"22:00","sun_1_open":"11:00","fri_1_open":"11:00","tue_1_close":"22:00","sat_1_open":"11:00","mon_1_open":"11:00","mon_1_close":"22:00","wed_1_open":"11:00","wed_1_close":"22:00","tue_1_open":"11:00","fri_1_close":"22:00"},"address":"新北市三芝區淺水灣北勢子41-7號","lat":25.253133063622,"long":121.47251626134,"area":"Xinbei","city":"Xinbei"},{"_id":{"$oid":"5878e844b97e4a09abd6b0ec"},"id":"1596547643932813","name":"301親子會館"},{"_id":{"$oid":"5878e844b97e4a09abd6b0ed"},"phone":"0903281110","id":"204423119906314","location":{"latitude":24.17346343,"city":"Taichung","street":"和平區東關路一段松鶴三巷81號","longitude":120.97579707333,"country":"Taiwan"},"name":"雅谷露營區","ontime":{"sun_1_close":"20:00","sat_1_close":"20:00","sun_1_open":"10:00","fri_1_close":"20:00","thu_1_open":"10:00","tue_1_close":"20:00","sat_1_open":"10:00","mon_1_open":"10:00","mon_1_close":"20:00","wed_1_open":"10:00","wed_1_close":"20:00","tue_1_open":"10:00","fri_1_open":"10:00","thu_1_close":"20:00"},"area":"Taichung","city":"Taichung"},{"_id":{"$oid":"5878e844b97e4a09abd6b0ee"},"phone":"033933000","id":"419804321425574","location":{"city":"Taoyüan","zip":"337","country":"Taiwan","longitude":121.24040230487,"street":"桃園縣大園鄉沙崙村18鄰80-3號5樓【竹圍漁港內遊艇碼頭】","latitude":25.115130546192},"name":"航空港360度景觀旋轉餐廳","ontime":{"sat_1_close":"21:00","tue_2_open":"17:00","thu_2_close":"21:00","mon_1_open":"10:00","thu_2_open":"17:00","mon_2_open":"17:00","sun_1_open":"10:00","fri_1_open":"10:00","tue_1_close":"14:00","wed_1_open":"10:00","wed_1_close":"14:00","tue_1_open":"10:00","thu_1_close":"14:00","sun_1_close":"21:00","mon_2_close":"21:00","fri_2_close":"21:00","sat_1_open":"10:00","mon_1_close":"14:00","fri_2_open":"17:00","wed_2_open":"17:00","tue_2_close":"21:00","thu_1_open":"10:00","wed_2_close":"21:00","fri_1_close":"14:00"},"address":"桃園縣大園鄉沙崙村18鄰80-3號5樓【竹圍漁港內遊艇碼頭】","lat":25.115130546192,"long":121.24040230487,"area":"Taoyüan","city":"Taoyüan"},{"_id":{"$oid":"5878e844b97e4a09abd6b0f0"},"id":"334494323314008","phone":"0928076466","location":{"city":"Ilan","street":"台灣宜蘭縣三星鄉大隱村大隱三路117巷3號","zip":"266","country":"Taiwan"},"name":"游正全的三星兩憶(華瑞薈館)","area":"Ilan","city":"Ilan"},{"_id":{"$oid":"5878e844b97e4a09abd6b0f1"},"id":"1531403787133021","phone":"0921652067","location":{"city":"Yüchih","zip":"555","country":"Taiwan","longitude":120.88570579662,"street":"南投縣魚池鄉五城村華龍巷41-8號","latitude":23.917623895844},"name":"四心小草露營區","address":"南投縣魚池鄉五城村華龍巷41-8號","lat":23.917623895844,"long":120.88570579662,"area":"Yüchih","city":"Yüchih"},{"_id":{"$oid":"5878e844b97e4a09abd6b0f2"},"id":"148494378549794","phone":"04 2622 4289","location":{"city":"Taichung","zip":"436","country":"Taiwan","longitude":120.58483,"street":"清水區鰲海路100號","latitude":24.27284},"name":"清水鰲峰山公園","address":"清水區鰲海路100號","lat":24.27284,"long":120.58483,"area":"Taichung","city":"Taichung"},{"_id":{"$oid":"5878e844b97e4a09abd6b0f3"},"id":"440774945978399","phone":"039552877","location":{"city":"Luodong","zip":"265","country":"China","longitude":121.77412725944,"street":"9F., No.27, Gongzheng St., Luodong Township","latitude":24.677854501409},"name":"宜蘭羅東幸福‧星空精品旅店","address":"9F., No.27, Gongzheng St., Luodong Township","lat":24.677854501409,"long":121.77412725944,"area":"Luodong","city":"Luodong"},{"_id":{"$oid":"5878e844b97e4a09abd6b0f4"},"phone":"0492791949","id":"119569658056134","location":{"city":"信義鄉","street":"明德村新開巷11號","zip":"556"},"name":"信義鄉梅子夢工廠","ontime":{"sun_1_close":"17:00","sat_1_close":"17:00","sun_1_open":"08:00","fri_1_close":"17:00","thu_1_open":"08:00","tue_1_close":"17:00","sat_1_open":"08:00","mon_1_open":"08:00","mon_1_close":"17:00","wed_1_open":"08:00","wed_1_close":"17:00","tue_1_open":"08:00","fri_1_open":"08:00","thu_1_close":"17:00"}},{"_id":{"$oid":"5878e844b97e4a09abd6b0f5"},"id":"449398501843981","phone":"(049) 2855235","location":{"city":"Nantouhsien","zip":"555","country":"Taiwan","longitude":120.907407,"street":"南投縣魚池鄉水社村中山路292號","latitude":23.86713},"name":"5Boat B\u0026B 日月潭五船民宿","address":"南投縣魚池鄉水社村中山路292號","lat":23.86713,"long":120.907407,"area":"Nantouhsien","city":"Nantouhsien"},{"_id":{"$oid":"5878e844b97e4a09abd6b0f6"},"phone":"034896028","id":"153640108118999","location":{"city":"Taoyüan","zip":"32543","country":"Taiwan","longitude":121.16435199629,"street":"桃園市龍潭區三水里 006 鄰大北坑街 1998 巷 139 號","latitude":24.869310330286},"name":"6028花園景觀餐廳","ontime":{"sun_1_close":"20:30","sat_1_close":"20:30","sun_1_open":"10:30","fri_1_close":"20:30","thu_1_open":"10:30","tue_1_close":"20:30","sat_1_open":"10:30","mon_1_open":"10:30","mon_1_close":"20:30","wed_1_open":"10:30","wed_1_close":"20:30","tue_1_open":"10:30","fri_1_open":"10:30","thu_1_close":"20:30"},"address":"桃園市龍潭區三水里 006 鄰大北坑街 1998 巷 139 號","lat":24.869310330286,"long":121.16435199629,"area":"Taoyüan","city":"Taoyüan"},{"_id":{"$oid":"5878e844b97e4a09abd6b0f7"},"phone":"035505588","id":"939239099497911","location":{"city":"Hsinchu","zip":"323","country":"Taiwan","longitude":120.97129959604,"street":"新竹縣新豐鄉新豐村12鄰295號 24.917917，120.971481","latitude":24.917603996337},"name":"61蔚藍海","ontime":{"sun_1_close":"19:00","sat_1_close":"19:00","sun_1_open":"10:00","fri_1_close":"19:00","thu_1_open":"10:00","tue_1_close":"19:00","sat_1_open":"10:00","wed_1_open":"10:00","wed_1_close":"19:00","tue_1_open":"10:00","fri_1_open":"10:00","thu_1_close":"19:00"},"address":"新竹縣新豐鄉新豐村12鄰295號 24.917917，120.971481","lat":24.917603996337,"long":120.97129959604,"area":"Hsinchu","city":"Hsinchu"},{"_id":{"$oid":"5878e844b97e4a09abd6b0f8"},"phone":"05-5575989#122","id":"132324823511178","location":{"city":"Touliu","zip":"64069","country":"Taiwan","longitude":120.59254618909,"street":"雲林縣斗六市斗工六路六號","latitude":23.717893690076},"name":"朝露魚舖觀光工廠","ontime":{"sun_1_close":"18:00","sat_1_close":"18:00","sun_1_open":"09:00","fri_1_close":"18:00","thu_1_open":"09:00","tue_1_close":"18:00","sat_1_open":"09:00","mon_1_open":"09:00","mon_1_close":"18:00","wed_1_open":"09:00","wed_1_close":"18:00","tue_1_open":"09:00","fri_1_open":"09:00","thu_1_close":"18:00"},"address":"雲林縣斗六市斗工六路六號","lat":23.717893690076,"long":120.59254618909,"area":"Touliu","city":"Touliu"},{"_id":{"$oid":"5878e844b97e4a09abd6b0f9"},"id":"631595866851111","phone":"0918-996489","location":{"latitude":25.0006,"city":"Taoyüan","longitude":121.22886,"country":"Taiwan"},"name":"楞子手作","area":"Taoyüan","city":"Taoyüan"},{"_id":{"$oid":"5878e844b97e4a09abd6b0fa"},"phone":"03-968-0195#21","id":"459667027457476","location":{"city":"Lotung","zip":"26946","country":"Taiwan","longitude":121.7863087,"street":"宜蘭縣冬山鄉珍珠村冬山路二段380號","latitude":24.6445272},"name":"71度n庭園咖啡","ontime":{"sun_1_close":"18:30","sat_1_close":"18:30","sun_1_open":"11:00","fri_1_close":"18:30","thu_1_open":"11:00","tue_1_close":"18:30","sat_1_open":"11:00","wed_1_open":"11:00","wed_1_close":"18:30","tue_1_open":"11:00","fri_1_open":"11:00","thu_1_close":"18:30"},"address":"宜蘭縣冬山鄉珍珠村冬山路二段380號","lat":24.6445272,"long":121.7863087,"area":"Lotung","city":"Lotung"},{"_id":{"$oid":"5878e844b97e4a09abd6b0fb"},"id":"569360749934211","phone":"0903676876","location":{"city":"Lotung","zip":"269","country":"Taiwan","longitude":121.72019275222,"street":"宜蘭縣冬山鄉大進村大進二路76號","latitude":24.637952527778},"name":"76親子民宿-宜蘭合法民宿","address":"宜蘭縣冬山鄉大進村大進二路76號","lat":24.637952527778,"long":121.72019275222,"area":"Lotung","city":"Lotung"},{"_id":{"$oid":"5878e844b97e4a09abd6b0fc"},"id":"1668010973441656","phone":"+886911291958","location":{"city":"南投縣埔里鎮","street":"福興里大坑巷1-11號","zip":"54558"},"name":"哈里露露營地"},{"_id":{"$oid":"5878e844b97e4a09abd6b0fd"},"id":"1007007116014888","name":"85度c小巫姊姊親子教室"},{"_id":{"$oid":"5878e844b97e4a09abd6b0fe"},"id":"1654285714855126","phone":"0800-012858","location":{"city":"Taichung","zip":"427","country":"Taiwan","longitude":120.6907196,"street":"潭子區雅潭路二段282號","latitude":24.2160892},"name":"8NaNa八樂那-粉絲報報","address":"潭子區雅潭路二段282號","lat":24.2160892,"long":120.6907196,"area":"Taichung","city":"Taichung"},{"_id":{"$oid":"5878e844b97e4a09abd6b0ff"},"phone":"06-2661193","id":"824217497590374","location":{"city":"Tainan","zip":"71755","country":"Taiwan","longitude":120.22285,"street":"台南市仁德區二仁路一段321號","latitude":22.92443},"name":"臺南‧家具產業博物館","ontime":{"sun_1_close":"17:00","sat_1_close":"17:00","sun_1_open":"10:00","fri_1_close":"17:00","thu_1_open":"10:00","tue_1_close":"17:00","sat_1_open":"10:00","wed_1_open":"10:00","wed_1_close":"17:00","tue_1_open":"10:00","fri_1_open":"10:00","thu_1_close":"17:00"},"address":"台南市仁德區二仁路一段321號","lat":22.92443,"long":120.22285,"area":"Tainan","city":"Tainan"},{"_id":{"$oid":"5878e844b97e4a09abd6b101"},"phone":"087722077","id":"177057329003916","location":{"city":"Pingtung","zip":"905","country":"Taiwan","longitude":120.49812,"street":"屏東縣里港鄉過江村過江路126號","latitude":22.78465},"name":"薰之園香草休閒農場","ontime":{"sun_1_close":"22:00","sat_1_close":"22:00","sun_1_open":"10:00","fri_1_close":"22:00","thu_1_open":"10:00","tue_1_close":"22:00","sat_1_open":"10:00","mon_1_open":"10:00","mon_1_close":"22:00","wed_1_open":"10:00","wed_1_close":"22:00","tue_1_open":"10:00","fri_1_open":"10:00","thu_1_close":"22:00"},"address":"屏東縣里港鄉過江村過江路126號","lat":22.78465,"long":120.49812,"area":"Pingtung","city":"Pingtung"},{"_id":{"$oid":"5878e844b97e4a09abd6b102"},"phone":"039383305","id":"445069672331488","location":{"city":"Yilan City","zip":"263","country":"Taiwan","longitude":121.78656,"street":"宜蘭縣壯圍鄉壯五路143號","latitude":24.74583},"name":"宜蘭 ㄟ米間親子友善風味料理","ontime":{"sun_1_close":"19:00","sat_1_close":"19:00","sun_1_open":"11:00","thu_1_open":"11:00","sat_1_open":"11:00","mon_1_open":"11:00","mon_1_close":"19:00","wed_1_open":"11:00","wed_1_close":"19:00","fri_1_close":"19:00","fri_1_open":"11:00","thu_1_close":"19:00"},"address":"宜蘭縣壯圍鄉壯五路143號","lat":24.74583,"long":121.78656,"area":"Yilan City","city":"Yilan City"},{"_id":{"$oid":"5878e844b97e4a09abd6b103"},"id":"1428482844052409","phone":"886-2-2791-3200","location":{"city":"Taipei","zip":"11494","country":"Taiwan","longitude":121.5803223,"street":"內湖區舊宗路一段30巷13號2樓","latitude":25.0578308},"name":"亞洲寵物博物館－小獸醫生命教育","address":"內湖區舊宗路一段30巷13號2樓","lat":25.0578308,"long":121.5803223,"area":"Taipei","city":"Taipei"},{"_id":{"$oid":"5878e844b97e4a09abd6b104"},"phone":"033819099","id":"1095140867247729","location":{"city":"Taoyüan","zip":"337","country":"Taiwan","longitude":121.19528,"street":"大園區埔心里海豐坡26-3號","latitude":25.06353},"name":"看機機複合式餐廳","ontime":{"sun_1_close":"02:00","sat_1_close":"02:00","sun_1_open":"10:00","fri_1_close":"02:00","thu_1_open":"11:00","tue_1_close":"02:00","sat_1_open":"10:00","mon_1_open":"11:00","mon_1_close":"02:00","wed_1_open":"11:00","wed_1_close":"02:00","tue_1_open":"11:00","fri_1_open":"11:00","thu_1_close":"02:00"},"address":"大園區埔心里海豐坡26-3號","lat":25.06353,"long":121.19528,"area":"Taoyüan","city":"Taoyüan"},{"_id":{"$oid":"5878e844b97e4a09abd6b105"},"id":"301274676561001","name":"Abic愛貝客-親子旅遊\u0026親子餐廳大募集"},{"_id":{"$oid":"5878e844b97e4a09abd6b106"},"phone":"03-3817391","id":"205601072797799","location":{"city":"Taoyüan","zip":"337","country":"Taiwan","longitude":121.30836034393,"street":"桃園市大園區五青路300巷53號","latitude":24.985344043898},"name":"阿勃勒農莊","ontime":{"sun_1_close":"21:00","sat_1_close":"21:00","sun_1_open":"11:00","fri_1_close":"18:30","thu_1_open":"11:00","tue_1_close":"18:30","sat_1_open":"11:00","mon_1_open":"11:00","mon_1_close":"18:30","wed_1_open":"11:00","wed_1_close":"18:30","tue_1_open":"11:00","fri_1_open":"11:00","thu_1_close":"18:30"},"address":"桃園市大園區五青路300巷53號","lat":24.985344043898,"long":121.30836034393,"area":"Taoyüan","city":"Taoyüan"},{"_id":{"$oid":"5878e844b97e4a09abd6b107"},"phone":"02-2841-2611","id":"142077359198800","location":{"city":"Taipei","zip":"11143","country":"Taiwan","longitude":121.55194,"street":"臺北市士林區至善路二段282號","latitude":25.1010199},"name":"順益台灣原住民博物館","ontime":{"sun_1_close":"17:00","sat_1_close":"17:00","sun_1_open":"09:00","fri_1_close":"17:00","thu_1_open":"09:00","tue_1_close":"17:00","sat_1_open":"09:00","wed_1_open":"09:00","wed_1_close":"17:00","tue_1_open":"09:00","fri_1_open":"09:00","thu_1_close":"17:00"},"address":"臺北市士林區至善路二段282號","lat":25.1010199,"long":121.55194,"area":"Taipei","city":"Taipei"},{"_id":{"$oid":"5878e844b97e4a09abd6b108"},"id":"733034696795851","phone":" 餐廳專線04-25690125    生態體驗04-25672033","location":{"city":"Taichung","zip":"428","country":"Taiwan","longitude":120.67045,"street":"大雅區雅潭路三段500號","latitude":24.2163499},"name":"赤腳ㄚ生態農莊","address":"大雅區雅潭路三段500號","lat":24.2163499,"long":120.67045,"area":"Taichung","city":"Taichung"},{"_id":{"$oid":"5878e844b97e4a09abd6b109"},"phone":"02 2586 8716","id":"809462099067532","location":{"latitude":25.069881792755,"city":"Taipei","street":"中山區玉門街1號","longitude":121.52071616629,"country":"Taiwan"},"name":"台北悠活村-悠活體驗館及資源館","ontime":{"sun_1_close":"20:00","sat_1_close":"20:00","sun_1_open":"09:00","fri_1_close":"17:00","thu_1_open":"09:00","tue_1_close":"17:00","sat_1_open":"09:00","wed_1_open":"09:00","wed_1_close":"17:00","tue_1_open":"09:00","fri_1_open":"09:00","thu_1_close":"17:00"},"area":"Taipei","city":"Taipei"},{"_id":{"$oid":"5878e844b97e4a09abd6b10b"},"phone":"02-2322-3716","id":"911177449003682","location":{"city":"Taipei","zip":"100","country":"Taiwan","longitude":121.51493,"street":"重慶南路二段51號B1","latitude":25.03121},"name":"農人餐桌 親子餐廳","ontime":{"sun_1_close":"21:00","sat_1_close":"21:00","sun_1_open":"11:00","fri_1_close":"21:00","thu_1_open":"11:30","tue_1_close":"21:00","sat_1_open":"11:00","mon_1_open":"11:30","mon_1_close":"21:00","wed_1_open":"11:30","wed_1_close":"21:00","tue_1_open":"11:30","fri_1_open":"11:30","thu_1_close":"21:00"},"address":"重慶南路二段51號B1","lat":25.03121,"long":121.51493,"area":"Taipei","city":"Taipei"},{"_id":{"$oid":"5878e844b97e4a09abd6b10c"},"phone":"033288787","id":"997117326996632","location":{"city":"Taoyüan","zip":"333","country":"Taiwan","longitude":121.36907,"street":"龜山區文化二路91號","latitude":25.05519},"name":"艾尼亞義式餐廳","ontime":{"sun_1_close":"22:00","sat_1_close":"22:00","sun_1_open":"11:00","fri_1_close":"22:00","thu_1_open":"11:00","tue_1_close":"22:00","sat_1_open":"11:00","mon_1_open":"11:00","mon_1_close":"22:00","wed_1_open":"11:00","wed_1_close":"22:00","tue_1_open":"11:00","fri_1_open":"11:00","thu_1_close":"22:00"},"address":"龜山區文化二路91號","lat":25.05519,"long":121.36907,"area":"Taoyüan","city":"Taoyüan"},{"_id":{"$oid":"5878e844b97e4a09abd6b10d"},"phone":"07-7932223","id":"160344964012983","location":{"city":"Kaohsiung","zip":"812","country":"Taiwan","longitude":120.34455709045,"street":"小港區明聖街135巷10弄12號","latitude":22.578913695722},"name":"淨園農場","ontime":{"sun_1_close":"23:00","sat_1_close":"23:00","sun_1_open":"09:30","fri_1_close":"22:00","thu_1_open":"10:00","tue_1_close":"22:00","sat_1_open":"09:30","mon_1_open":"10:00","mon_1_close":"22:00","wed_1_open":"10:00","wed_1_close":"22:00","tue_1_open":"10:00","fri_1_open":"10:00","thu_1_close":"22:00"},"address":"小港區明聖街135巷10弄12號","lat":22.578913695722,"long":120.34455709045,"area":"Kaohsiung","city":"Kaohsiung"},{"_id":{"$oid":"5878e844b97e4a09abd6b10e"},"id":"330681810359578","phone":"0937515333","location":{"city":"Miaoli","zip":"353","country":"Taiwan","longitude":120.98511,"street":"苗栗縣南庄鄉南江村18鄰長崎下8之1號","latitude":24.56732},"name":"秘境露營","address":"苗栗縣南庄鄉南江村18鄰長崎下8之1號","lat":24.56732,"long":120.98511,"area":"Miaoli","city":"Miaoli"},{"_id":{"$oid":"5878e844b97e4a09abd6b10f"},"id":"330681810359578","phone":"0937515333","location":{"city":"Miaoli","zip":"353","country":"Taiwan","longitude":120.98511,"street":"苗栗縣南庄鄉南江村18鄰長崎下8之1號","latitude":24.56732},"name":"秘境露營","address":"苗栗縣南庄鄉南江村18鄰長崎下8之1號","lat":24.56732,"long":120.98511,"area":"Miaoli","city":"Miaoli"},{"_id":{"$oid":"5878e844b97e4a09abd6b110"},"id":"231715170196272","phone":"04-25810893","location":{"city":"Taichung","zip":"426","country":"Taiwan","longitude":120.80940878775,"street":"台中市新社區協成村協中街131號","latitude":24.191826451304},"name":"【阿亮香菇園】樸實認真專業的香菇園區","address":"台中市新社區協成村協中街131號","lat":24.191826451304,"long":120.80940878775,"area":"Taichung","city":"Taichung"},{"_id":{"$oid":"5878e844b97e4a09abd6b111"},"id":"1069647829747156","phone":"0919900852","location":{"city":"Yilan City","zip":"269","country":"Taiwan","longitude":121.7992912,"street":"宜蘭縣冬山鄉保安二路467號","latitude":24.6494082},"name":"宜蘭愛麗思主題民宿","address":"宜蘭縣冬山鄉保安二路467號","lat":24.6494082,"long":121.7992912,"area":"Yilan City","city":"Yilan City"},{"_id":{"$oid":"5878e844b97e4a09abd6b112"},"phone":"062980891","id":"1783400308558971","location":{"city":"Tainan","zip":"708","country":"Taiwan","longitude":120.16421,"street":"光州六街76號","latitude":22.99104},"name":"愛麗絲親子餐廳","ontime":{"sun_1_close":"20:00","mon_2_open":"17:00","fri_2_open":"17:00","mon_2_close":"20:00","fri_2_close":"20:00","fri_1_close":"15:00","thu_1_open":"11:00","sun_1_open":"09:00","thu_2_close":"20:00","sat_1_close":"20:00","sat_1_open":"09:00","mon_1_open":"11:00","mon_1_close":"15:00","wed_2_close":"20:00","wed_1_open":"11:00","wed_1_close":"15:00","thu_2_open":"17:00","wed_2_open":"17:00","fri_1_open":"11:00","thu_1_close":"15:00"},"address":"光州六街76號","lat":22.99104,"long":120.16421,"area":"Tainan","city":"Tainan"},{"_id":{"$oid":"5878e844b97e4a09abd6b113"},"id":"1420475811533712","phone":"052679917","location":{"city":"嘉義縣阿里山鄉","street":"中正村東阿里山59號","zip":"605"},"name":"阿里山國家森林遊樂區"},{"_id":{"$oid":"5878e844b97e4a09abd6b115"},"id":"1144883055602040","phone":"0978317098","location":{"latitude":24.484102213514,"city":"苗栗縣公館鄉","street":"福星村","longitude":120.83877325058},"name":"樹語星晴露營區"},{"_id":{"$oid":"5878e844b97e4a09abd6b116"},"phone":"0963638557","id":"493349994162580","location":{"city":"Yilan City","zip":"268","country":"Taiwan","longitude":121.80795875241,"street":"宜蘭縣五結鄉公園三路111號","latitude":24.678907790517},"name":"耘心田Villa渡假會館","ontime":{"sun_1_close":"22:00","sat_1_close":"22:00","sun_1_open":"08:00","fri_1_close":"22:00","thu_1_open":"08:00","tue_1_close":"22:00","sat_1_open":"08:00","mon_1_open":"08:00","mon_1_close":"22:00","wed_1_open":"08:00","wed_1_close":"22:00","tue_1_open":"08:00","fri_1_open":"08:00","thu_1_close":"22:00"},"address":"宜蘭縣五結鄉公園三路111號","lat":24.678907790517,"long":121.80795875241,"area":"Yilan City","city":"Yilan City"},{"_id":{"$oid":"5878e844b97e4a09abd6b117"},"id":"109199135819160","phone":"\u003c\u003cnot-applicable\u003e\u003e","location":{"city":"Taipei","zip":"100","country":"Taiwan","longitude":121.529007,"street":"中正區八德路一段1號","latitude":25.0436306},"name":"Alleycat's Pizza","address":"中正區八德路一段1號","lat":25.0436306,"long":121.529007,"area":"Taipei","city":"Taipei"},{"_id":{"$oid":"5878e844b97e4a09abd6b118"},"phone":"04-7202030","id":"154767644719923","location":{"city":"Changhua","zip":"50053","country":"Taiwan","longitude":120.538681,"street":"彰新路一段22號","latitude":24.0891495},"name":"阿法咖啡親子餐廳","ontime":{"sun_1_close":"15:30","sat_1_close":"15:30","sun_1_open":"08:00","fri_1_close":"15:30","thu_1_open":"08:00","tue_1_close":"15:30","sat_1_open":"08:00","mon_1_open":"08:00","mon_1_close":"15:30","tue_1_open":"08:00","fri_1_open":"08:00","thu_1_close":"15:30"},"address":"彰新路一段22號","lat":24.0891495,"long":120.538681,"area":"Changhua","city":"Changhua"},{"_id":{"$oid":"5878e844b97e4a09abd6b119"},"phone":"0976-362767","id":"1576305675951236","location":{"latitude":23.92733531034,"street":"南投縣埔里鎮麒麟里武界路","zip":"545","longitude":121.0047064717},"name":"埔里龍泉營地","ontime":{"sun_1_close":"21:00","sat_1_close":"21:00","sun_1_open":"13:00","fri_1_close":"21:00","thu_1_open":"13:00","tue_1_close":"21:00","sat_1_open":"13:00","mon_1_open":"13:00","mon_1_close":"21:00","wed_1_open":"13:00","wed_1_close":"21:00","tue_1_open":"13:00","fri_1_open":"13:00","thu_1_close":"21:00"}},{"_id":{"$oid":"5878e844b97e4a09abd6b11a"},"id":"1582578022033317","phone":"0918163401","location":{"city":"Yilan City","zip":"264","country":"Taiwan","longitude":121.8402,"street":"員山鄉尚德村八甲路2-26號","latitude":25.12771},"name":"阿米哥渡假會館","address":"員山鄉尚德村八甲路2-26號","lat":25.12771,"long":121.8402,"area":"Yilan City","city":"Yilan City"},{"_id":{"$oid":"5878e844b97e4a09abd6b11b"},"id":"342520289110222","phone":"089841751","location":{"city":"Taitung","zip":"961","country":"Taiwan","longitude":121.32466546447,"street":"台東縣成功鎮信義里新村路25號","latitude":23.018394046638},"name":"東部海岸國家風景區管理處-阿美族民俗中心","address":"台東縣成功鎮信義里新村路25號","lat":23.018394046638,"long":121.32466546447,"area":"Taitung","city":"Taitung"},{"_id":{"$oid":"5878e844b97e4a09abd6b11d"},"phone":"0228321158","id":"159186191115075","location":{"city":"Taipei","zip":"111","country":"Taiwan","longitude":121.5412,"street":"士林區仰德大道二段11巷11號","latitude":25.1033},"name":"Angels' Share Cafe 天使分享咖啡廳","ontime":{"sun_1_close":"22:30","sat_1_close":"22:30","sun_1_open":"11:30","fri_1_open":"11:30","tue_1_close":"21:30","sat_1_open":"11:30","mon_1_open":"12:00","mon_1_close":"21:30","wed_1_open":"12:00","wed_1_close":"21:30","tue_1_open":"12:00","fri_1_close":"21:00"},"address":"士林區仰德大道二段11巷11號","lat":25.1033,"long":121.5412,"area":"Taipei","city":"Taipei"},{"_id":{"$oid":"5878e844b97e4a09abd6b11e"},"id":"314467614927","location":{"city":"Espoo","country":"Finland"},"name":"Angry Birds"},{"_id":{"$oid":"5878e844b97e4a09abd6b121"},"phone":"0905299200","id":"1522041901424267","location":{"city":"Taipei","zip":"116","country":"Taiwan","longitude":121.55467,"street":"辛亥路四段258號","latitude":25.0012599},"name":"Aniki Burger 阿尼基美式餐廳 萬芳店","ontime":{"sun_1_close":"22:00","sat_1_close":"22:00","sun_1_open":"11:00","fri_1_close":"22:00","thu_1_open":"11:00","tue_1_close":"22:00","sat_1_open":"11:00","mon_1_open":"11:00","mon_1_close":"22:00","wed_1_open":"11:00","wed_1_close":"22:00","tue_1_open":"11:00","fri_1_open":"11:00","thu_1_close":"22:00"},"address":"辛亥路四段258號","lat":25.0012599,"long":121.55467,"area":"Taipei","city":"Taipei"},{"_id":{"$oid":"5878e844b97e4a09abd6b122"},"phone":"03-9362337","id":"1101149879958024","location":{"city":"Yilan City","zip":"260","country":"Taiwan","longitude":121.74334,"street":"260 宜蘭縣宜蘭市宜中路145號1-2樓","latitude":24.74928},"name":"安妮塔故事屋","ontime":{"sun_1_close":"16:00","sat_1_close":"20:00","sun_1_open":"10:00","thu_1_open":"10:00","sat_1_open":"10:00","mon_1_open":"10:00","mon_1_close":"20:00","wed_1_open":"10:00","wed_1_close":"20:00","fri_1_close":"20:00","fri_1_open":"10:00","thu_1_close":"20:00"},"address":"260 宜蘭縣宜蘭市宜中路145號1-2樓","lat":24.74928,"long":121.74334,"area":"Yilan City","city":"Yilan City"},{"_id":{"$oid":"5878e844b97e4a09abd6b123"},"phone":"02-34010672","id":"642037259232491","location":{"city":"Keelung","zip":"204","country":"Taiwan","longitude":121.4677878,"street":"安樂區麥金路482號3樓","latitude":25.0230209},"name":"基隆安樂親子館","ontime":{"fri_1_close":"17:00","thu_1_open":"09:00","tue_1_close":"17:00","wed_1_open":"09:00","wed_1_close":"17:00","tue_1_open":"09:00","fri_1_open":"09:00","thu_1_close":"17:00"},"address":"安樂區麥金路482號3樓","lat":25.0230209,"long":121.4677878,"area":"Keelung","city":"Keelung"},{"_id":{"$oid":"5878e844b97e4a09abd6b124"},"id":"1692354961012571","name":"Anpanman Showcase"},{"_id":{"$oid":"5878e844b97e4a09abd6b125"},"id":"124348924403262","phone":"0918470756","location":{"city":"Taoyüan","zip":"330","country":"Taiwan","longitude":121.31956,"street":"桃園市國興街19號","latitude":24.99841},"name":"螞蟻的家-生態館  Ant Home-粉絲專業","address":"桃園市國興街19號","lat":24.99841,"long":121.31956,"area":"Taoyüan","city":"Taoyüan"},{"_id":{"$oid":"5878e844b97e4a09abd6b126"},"id":"789047554496319","location":{"street":"台灣苗栗縣南庄鄉東河村石壁22號(苗21/10.4公里處)(標高750)","zip":"353"},"name":"青杉嶴 Ao Cafe \u0026 BnB"},{"_id":{"$oid":"5878e844b97e4a09abd6b127"},"phone":"072010668","id":"694037227388567","location":{"city":"Kaohsiung","zip":"80044","country":"Taiwan","longitude":120.30214,"street":"新興區中山二路476號、478號","latitude":22.62071},"name":"迴轉壽司あっぱれ - appare","ontime":{"sun_1_close":"22:30","sat_1_close":"22:30","sun_1_open":"11:30","fri_1_close":"22:30","thu_1_open":"11:30","tue_1_close":"22:30","sat_1_open":"11:30","mon_1_open":"11:30","mon_1_close":"22:30","wed_1_open":"11:30","wed_1_close":"22:30","tue_1_open":"11:30","fri_1_open":"11:30","thu_1_close":"22:30"},"address":"新興區中山二路476號、478號","lat":22.62071,"long":120.30214,"area":"Kaohsiung","city":"Kaohsiung"},{"_id":{"$oid":"5878e844b97e4a09abd6b129"},"id":"298167403551","name":"Aranzi Aronzo阿朗基阿龍佐台灣"},{"_id":{"$oid":"5878e844b97e4a09abd6b12a"},"phone":"0226626333","id":"1578440032409637","location":{"city":"Xinbei","zip":"深坑區阿柔洋39-2號","country":"Taiwan","longitude":121.6133307686,"street":"新北市","latitude":24.997161700702},"name":"阿柔洋房","ontime":{"sun_1_close":"18:00","sat_1_close":"18:00","sun_1_open":"11:00","fri_1_close":"18:00","thu_1_open":"11:30","tue_1_close":"18:00","sat_1_open":"11:00","mon_1_open":"11:30","mon_1_close":"18:00","tue_1_open":"11:30","fri_1_open":"11:30","thu_1_close":"18:00"},"address":"新北市","lat":24.997161700702,"long":121.6133307686,"area":"Xinbei","city":"Xinbei"},{"_id":{"$oid":"5878e844b97e4a09abd6b12b"},"id":"444533259023175","phone":"02-2651-8163","location":{"city":"Taipei","zip":"115","country":"Taiwan","longitude":121.61721396159,"street":"南港區研究院路二段61巷15號(冠德中研大樓內)","latitude":25.044564066624},"name":"Art Digital Library","address":"南港區研究院路二段61巷15號(冠德中研大樓內)","lat":25.044564066624,"long":121.61721396159,"area":"Taipei","city":"Taipei"},{"_id":{"$oid":"5878e844b97e4a09abd6b12c"},"phone":" 039-229933      ","id":"192627594150931","location":{"city":"Yangmei","zip":"264","country":"Taiwan","longitude":121.68238848176,"street":"宜蘭縣員山鄉內城路650號","latitude":24.71478557322},"name":"香草菲菲","ontime":{"sun_1_close":"18:00","sat_1_close":"18:00","sun_1_open":"09:00","fri_1_close":"18:00","thu_1_open":"09:00","tue_1_close":"18:00","sat_1_open":"09:00","wed_1_open":"09:00","wed_1_close":"18:00","tue_1_open":"09:00","fri_1_open":"09:00","thu_1_close":"18:00"},"address":"宜蘭縣員山鄉內城路650號","lat":24.71478557322,"long":121.68238848176,"area":"Yangmei","city":"Yangmei"},{"_id":{"$oid":"5878e844b97e4a09abd6b12d"},"phone":"訂位專線 02-26971117","id":"474351889388155","location":{"city":"Hsichih","street":"新北市汐止區新台五路１段99號A棟2樓之2","country":"Taiwan"},"name":"Artr積木塗鴉餐廳","ontime":{"sun_1_close":"21:00","sat_1_close":"21:30","sun_1_open":"11:00","fri_1_close":"21:30","thu_1_open":"11:00","tue_1_close":"21:00","sat_1_open":"11:00","mon_1_open":"11:00","mon_1_close":"21:00","wed_1_open":"11:00","wed_1_close":"21:00","tue_1_open":"11:00","fri_1_open":"11:00","thu_1_close":"21:00"},"area":"Hsichih","city":"Hsichih"},{"_id":{"$oid":"5878e844b97e4a09abd6b12e"},"phone":"訂位專線 02-26971117","id":"474351889388155","location":{"city":"Hsichih","street":"新北市汐止區新台五路１段99號A棟2樓之2","country":"Taiwan"},"name":"Artr積木塗鴉餐廳","ontime":{"sun_1_close":"21:00","sat_1_close":"21:30","sun_1_open":"11:00","fri_1_close":"21:30","thu_1_open":"11:00","tue_1_close":"21:00","sat_1_open":"11:00","mon_1_open":"11:00","mon_1_close":"21:00","wed_1_open":"11:00","wed_1_close":"21:00","tue_1_open":"11:00","fri_1_open":"11:00","thu_1_close":"21:00"},"area":"Hsichih","city":"Hsichih"},{"_id":{"$oid":"5878e844b97e4a09abd6b12f"},"phone":"訂位專線 02-26971117","id":"474351889388155","location":{"city":"Hsichih","street":"新北市汐止區新台五路１段99號A棟2樓之2","country":"Taiwan"},"name":"Artr積木塗鴉餐廳","ontime":{"sun_1_close":"21:00","sat_1_close":"21:30","sun_1_open":"11:00","fri_1_close":"21:30","thu_1_open":"11:00","tue_1_close":"21:00","sat_1_open":"11:00","mon_1_open":"11:00","mon_1_close":"21:00","wed_1_open":"11:00","wed_1_close":"21:00","tue_1_open":"11:00","fri_1_open":"11:00","thu_1_close":"21:00"},"area":"Hsichih","city":"Hsichih"},{"_id":{"$oid":"5878e844b97e4a09abd6b130"},"phone":"02-24693496","id":"323739974473700","location":{"city":"中正區","street":"基隆市中正區北寧路367號 （區域探索館4樓)","zip":"202"},"name":"Artr 八斗子。海科館彩繪餐廳","ontime":{"sun_1_close":"21:00","sat_1_close":"21:00","sun_1_open":"09:00","fri_1_close":"17:00","thu_1_open":"09:00","tue_1_close":"17:00","sat_1_open":"09:00","wed_1_open":"09:00","wed_1_close":"17:00","tue_1_open":"09:00","fri_1_open":"09:00","thu_1_close":"17:00"}},{"_id":{"$oid":"5878e844b97e4a09abd6b131"},"phone":"02-23645313","id":"202380409794093","location":{"city":"Taipei","zip":"100","country":"Taiwan","longitude":121.53213500977,"street":"汀州路三段230巷14弄2號","latitude":25.010698018652},"name":"台北國際藝術村－寶藏巖 Taipei Artist Village－Treasure Hill","ontime":{"sun_1_close":"22:00","sat_1_close":"22:00","sun_1_open":"11:00","fri_1_close":"22:00","thu_1_open":"11:00","tue_1_close":"22:00","sat_1_open":"11:00","wed_1_open":"11:00","wed_1_close":"22:00","tue_1_open":"11:00","fri_1_open":"11:00","thu_1_close":"22:00"},"address":"汀州路三段230巷14弄2號","lat":25.010698018652,"long":121.53213500977,"area":"Taipei","city":"Taipei"},{"_id":{"$oid":"5878e844b97e4a09abd6b132"},"phone":"02-29690366","id":"358332770887006","location":{"street":"新北市板橋區中正路435號","zip":"220"},"name":"板橋435藝文特區","ontime":{"sun_1_close":"18:00","sat_1_close":"18:00","sun_1_open":"09:00","fri_1_close":"17:00","thu_1_open":"09:00","tue_1_close":"17:00","sat_1_open":"09:00","mon_1_open":"09:00","mon_1_close":"17:00","wed_1_open":"09:00","wed_1_close":"17:00","tue_1_open":"09:00","fri_1_open":"09:00","thu_1_close":"17:00"}},{"_id":{"$oid":"5878e844b97e4a09abd6b133"},"phone":"05-5511585","id":"700199796679774","location":{"city":"Touliu","zip":"640","country":"Taiwan","longitude":120.572583,"street":"雲林縣斗六市榴北里中興路333號","latitude":23.731944},"name":"雅聞峇里海岸","ontime":{"sun_1_close":"17:30","sat_1_close":"17:30","sun_1_open":"08:00","fri_1_close":"17:00","thu_1_open":"08:30","tue_1_close":"17:00","sat_1_open":"08:00","mon_1_open":"08:30","mon_1_close":"17:00","wed_1_open":"08:30","wed_1_close":"17:00","tue_1_open":"08:30","fri_1_open":"08:30","thu_1_close":"17:00"},"address":"雲林縣斗六市榴北里中興路333號","lat":23.731944,"long":120.572583,"area":"Touliu","city":"Touliu"},{"_id":{"$oid":"5878e844b97e4a09abd6b134"},"id":"232680710156485","phone":"038-326111","location":{"city":"Hualien City","zip":"970","country":"Taiwan","longitude":121.6232145835,"street":"No. 6-1, Min Cyuan Rd., Hualien City, Hualien County 970, Taiwan","latitude":23.9837129386},"name":"花蓮亞士都飯店","address":"No. 6-1, Min Cyuan Rd., Hualien City, Hualien County 970, Taiwan","lat":23.9837129386,"long":121.6232145835,"area":"Hualien City","city":"Hualien City"},{"_id":{"$oid":"5878e844b97e4a09abd6b135"},"phone":"(07)8227488","id":"172623909462983","location":{"city":"Kaohsiung","zip":"806","country":"Taiwan","longitude":120.31273,"street":"高雄市前鎮區新衙路296巷81弄13號","latitude":22.58251},"name":"珍芳烏魚子見學工廠","ontime":{"sun_1_close":"17:30","sat_1_close":"17:30","sun_1_open":"09:00","fri_1_close":"17:30","thu_1_open":"09:00","tue_1_close":"17:30","sat_1_open":"09:00","mon_1_open":"09:00","mon_1_close":"17:30","wed_1_open":"09:00","wed_1_close":"17:30","tue_1_open":"09:00","fri_1_open":"09:00","thu_1_close":"17:30"},"address":"高雄市前鎮區新衙路296巷81弄13號","lat":22.58251,"long":120.31273,"area":"Kaohsiung","city":"Kaohsiung"},{"_id":{"$oid":"5878e844b97e4a09abd6b136"},"id":"481086845371645","phone":"0931939314","location":{"city":"Taichung","zip":"401","country":"Taiwan","longitude":120.68696523285,"street":"自由路3段27號","latitude":24.143113983506},"name":"At home like home","address":"自由路3段27號","lat":24.143113983506,"long":120.68696523285,"area":"Taichung","city":"Taichung"},{"_id":{"$oid":"5878e844b97e4a09abd6b137"},"id":"481086845371645","phone":"0931939314","location":{"city":"Taichung","zip":"401","country":"Taiwan","longitude":120.68696523285,"street":"自由路3段27號","latitude":24.143113983506},"name":"At home like home","address":"自由路3段27號","lat":24.143113983506,"long":120.68696523285,"area":"Taichung","city":"Taichung"},{"_id":{"$oid":"5878e844b97e4a09abd6b138"},"phone":"02-2268-2999 ","id":"644361078927237","location":{"city":"Tucheng","zip":"236","country":"Taiwan","longitude":121.433,"street":"新北市土城區大暖路136號","latitude":24.9833},"name":"王鼎時間科藝體驗館","ontime":{"sun_1_close":"17:00","sat_1_close":"17:00","sun_1_open":"09:00","fri_1_close":"17:00","thu_1_open":"09:00","tue_1_close":"17:00","sat_1_open":"09:00","mon_1_open":"09:00","mon_1_close":"17:00","wed_1_open":"09:00","wed_1_close":"17:00","tue_1_open":"09:00","fri_1_open":"09:00","thu_1_close":"17:00"},"address":"新北市土城區大暖路136號","lat":24.9833,"long":121.433,"area":"Tucheng","city":"Tucheng"},{"_id":{"$oid":"5878e844b97e4a09abd6b139"},"id":"414116175416168","phone":"0966667582","location":{"city":"Ilanhsien","zip":"269","country":"Taiwan","longitude":121.72965719259,"street":"宜蘭縣冬山鄉得安村梅湖路160號","latitude":24.650187255084},"name":"Aura Villa - 悠悅光","address":"宜蘭縣冬山鄉得安村梅湖路160號","lat":24.650187255084,"long":121.72965719259,"area":"Ilanhsien","city":"Ilanhsien"},{"_id":{"$oid":"5878e844b97e4a09abd6b13a"},"phone":"(04)2225-1877","id":"1690464074501352","location":{"city":"Taichung","zip":"40154","country":"Taiwan","longitude":120.68743765354,"street":"東區南京路147號","latitude":24.139910152484},"name":"黃金堡親子樂園","ontime":{"sun_1_close":"20:30","sat_1_close":"20:30","sun_1_open":"09:30","thu_1_open":"09:30","sat_1_open":"09:30","mon_1_open":"09:30","mon_1_close":"20:00","wed_1_open":"09:30","wed_1_close":"20:00","fri_1_close":"20:00","fri_1_open":"09:30","thu_1_close":"20:00"},"address":"東區南京路147號","lat":24.139910152484,"long":120.68743765354,"area":"Taichung","city":"Taichung"},{"_id":{"$oid":"5878e844b97e4a09abd6b13b"},"id":"1554856324770696","phone":"04-2236-0061","location":{"city":"Taichung","zip":"406","country":"Taiwan","longitude":120.68349972207,"street":"北屯區青島路三段155號2F","latitude":24.168518211034},"name":"凹嗚親子主題園","address":"北屯區青島路三段155號2F","lat":24.168518211034,"long":120.68349972207,"area":"Taichung","city":"Taichung"},{"_id":{"$oid":"5878e844b97e4a09abd6b13c"},"phone":"0958800093","id":"551307238247191","location":{"city":"Ilan","zip":"262","country":"Taiwan","longitude":121.7218399,"street":"宜蘭縣礁溪鄉二結路50-11號","latitude":24.7833519},"name":"甲蟲森林-生態教室","ontime":{"sun_1_close":"17:00","sat_1_close":"17:00","sun_1_open":"10:00","thu_1_open":"10:00","sat_1_open":"10:00","mon_1_open":"10:00","mon_1_close":"17:00","thu_1_close":"17:00","fri_1_open":"10:00","fri_1_close":"17:00"},"address":"宜蘭縣礁溪鄉二結路50-11號","lat":24.7833519,"long":121.7218399,"area":"Ilan","city":"Ilan"},{"_id":{"$oid":"5878e844b97e4a09abd6b13d"},"phone":"04-8383866","id":"1662089560737378","location":{"city":"Yuanlin","zip":"510","country":"Taiwan","longitude":120.56915,"street":"員林市新生路320號","latitude":23.96385},"name":"B12文創特區","ontime":{"sun_1_close":"20:00","sat_1_close":"20:00","sun_1_open":"11:00","fri_1_close":"20:00","thu_1_open":"11:00","tue_1_close":"20:00","sat_1_open":"11:00","mon_1_open":"11:00","mon_1_close":"20:00","wed_1_open":"11:00","wed_1_close":"20:00","tue_1_open":"11:00","fri_1_open":"11:00","thu_1_close":"20:00"},"address":"員林市新生路320號","lat":23.96385,"long":120.56915,"area":"Yuanlin","city":"Yuanlin"},{"_id":{"$oid":"5878e844b97e4a09abd6b13e"},"phone":"03-6570620","id":"457054191051849","location":{"street":"新竹縣竹北市縣政二路620號","zip":"302"},"name":"新竹縣托育資源中心","ontime":{"sat_1_close":"16:00","fri_1_close":"16:00","thu_1_open":"09:00","tue_1_close":"16:00","sat_1_open":"09:00","wed_1_open":"09:00","wed_1_close":"16:00","tue_1_open":"09:00","fri_1_open":"09:00","thu_1_close":"16:00"}},{"_id":{"$oid":"5878e844b97e4a09abd6b13f"},"id":"221155194573","location":{"city":"Taichung","zip":"407","country":"Taiwan","longitude":120.6211108,"street":"大墩19街號4-6樓","latitude":24.1743748},"name":"城堡樂園-嬰幼學院Baby college","address":"大墩19街號4-6樓","lat":24.1743748,"long":120.6211108,"area":"Taichung","city":"Taichung"},{"_id":{"$oid":"5878e844b97e4a09abd6b140"},"id":"672090189572742","phone":"0912898170","location":{"city":"Tainan","zip":"710","country":"Taiwan","longitude":120.24344592167,"street":"永康區永安二街12號","latitude":23.046332343889},"name":"童樂繪親子遊戲館","address":"永康區永安二街12號","lat":23.046332343889,"long":120.24344592167,"area":"Tainan","city":"Tainan"},{"_id":{"$oid":"5878e844b97e4a09abd6b141"},"id":"360310937440521","location":{"city":"Nantou","zip":"545","country":"Taiwan","longitude":120.97708,"street":"南投縣埔里鎮樹人三街260號","latitude":23.96536},"name":"寶貝屋","address":"南投縣埔里鎮樹人三街260號","lat":23.96536,"long":120.97708,"area":"Nantou","city":"Nantou"},{"_id":{"$oid":"5878e844b97e4a09abd6b142"},"phone":"0227996910","id":"346250275575114","location":{"city":"Neihu","zip":"11473","country":"Taiwan","longitude":121.58484,"street":"文德路155號","latitude":25.07875},"name":"BabyiSwim 水貝比親子坊 - Fun心游，High心學","ontime":{"sun_1_close":"18:00","sat_1_close":"18:00","sun_1_open":"10:00","fri_1_close":"18:00","thu_1_open":"10:00","tue_1_close":"18:00","sat_1_open":"10:00","wed_1_open":"10:00","wed_1_close":"18:00","tue_1_open":"10:00","fri_1_open":"10:00","thu_1_close":"18:00"},"address":"文德路155號","lat":25.07875,"long":121.58484,"area":"Neihu","city":"Neihu"},{"_id":{"$oid":"5878e844b97e4a09abd6b143"},"phone":"052225473","id":"878310678877413","location":{"city":"Chiayi","zip":"600","country":"Taiwan","longitude":120.44830799103,"street":"嘉義市國華街245號2樓16室","latitude":23.479405461972},"name":"遊Love園親子館","ontime":{"sun_1_close":"18:00","sat_1_close":"18:00","sun_1_open":"10:00","fri_1_close":"18:00","thu_1_open":"10:00","tue_1_close":"18:00","sat_1_open":"10:00","wed_1_open":"10:00","wed_1_close":"18:00","tue_1_open":"10:00","fri_1_open":"10:00","thu_1_close":"18:00"},"address":"嘉義市國華街245號2樓16室","lat":23.479405461972,"long":120.44830799103,"area":"Chiayi","city":"Chiayi"},{"_id":{"$oid":"5878e844b97e4a09abd6b144"},"phone":"04-2326-2659","id":"788679201182165","location":{"city":"Taichung","zip":"40866","country":"Taiwan","longitude":120.64774966492,"street":"南屯區大光街26號","latitude":24.148110239311},"name":"Ollu 兒童攝影","ontime":{"sun_1_close":"20:30","sat_1_close":"20:30","sun_1_open":"10:30","fri_1_close":"20:30","thu_1_open":"10:30","tue_1_close":"20:30","sat_1_open":"10:30","wed_1_open":"10:30","wed_1_close":"20:30","tue_1_open":"10:30","fri_1_open":"10:30","thu_1_close":"20:30"},"address":"南屯區大光街26號","lat":24.148110239311,"long":120.64774966492,"area":"Taichung","city":"Taichung"},{"_id":{"$oid":"5878e844b97e4a09abd6b145"},"phone":"02-85091151","id":"275810729191481","location":{"city":"Taipei","zip":"104","country":"Taiwan","longitude":121.55183515803,"street":"明水路575號B1","latitude":25.079953899101},"name":"Baby Play寶悅親子樂園","ontime":{"sun_1_close":"18:00","sat_1_close":"18:00","sun_1_open":"10:00","fri_1_close":"18:00","thu_1_open":"10:00","tue_1_close":"18:00","sat_1_open":"10:00","mon_1_open":"10:00","mon_1_close":"18:00","wed_1_open":"10:00","wed_1_close":"18:00","tue_1_open":"10:00","fri_1_open":"10:00","thu_1_close":"18:00"},"address":"明水路575號B1","lat":25.079953899101,"long":121.55183515803,"area":"Taipei","city":"Taipei"},{"_id":{"$oid":"5878e844b97e4a09abd6b146"},"phone":"0286741598","id":"804841222917407","location":{"city":"Xinbei","zip":"23741","country":"Taiwan","longitude":121.37643814087,"street":"三峽區學勤路172號1樓","latitude":24.945829958568},"name":"游學寶寶 Baby SPA 台北館","ontime":{"sun_1_close":"20:00","sat_1_close":"20:00","sun_1_open":"09:00","fri_1_close":"20:00","thu_1_open":"09:00","tue_1_close":"20:00","sat_1_open":"09:00","wed_1_open":"09:00","wed_1_close":"20:00","tue_1_open":"09:00","fri_1_open":"09:00","thu_1_close":"20:00"},"address":"三峽區學勤路172號1樓","lat":24.945829958568,"long":121.37643814087,"area":"Xinbei","city":"Xinbei"},{"_id":{"$oid":"5878e844b97e4a09abd6b147"},"phone":"+886-2-8941-8900","id":"1633592523520175","location":{"city":"Xinbei","zip":"234","country":"Taiwan","longitude":121.5150528,"street":"永和區得和路10號","latitude":25.0005398},"name":"BabyWonderland 童話世界親子空間","ontime":{"sun_1_close":"21:00","sat_1_close":"21:00","sun_1_open":"11:00","thu_1_open":"11:00","sat_1_open":"11:00","mon_1_open":"11:00","mon_1_close":"21:00","wed_1_open":"11:00","wed_1_close":"21:00","fri_1_close":"21:00","fri_1_open":"11:00","thu_1_close":"21:00"},"address":"永和區得和路10號","lat":25.0005398,"long":121.5150528,"area":"Xinbei","city":"Xinbei"},{"_id":{"$oid":"5878e844b97e4a09abd6b148"},"phone":"(02)2747-1988 ","id":"672228649464158","location":{"city":"Taipei","zip":"114","country":"Taiwan","longitude":121.56187407391,"street":"台北市八德路四段123號1樓","latitude":25.048778643033},"name":"BAC Chocolate World","ontime":{"sun_1_close":"19:00","sat_1_close":"19:00","sun_1_open":"12:00","fri_1_close":"19:00","thu_1_open":"12:00","tue_1_close":"19:00","sat_1_open":"12:00","mon_1_open":"12:00","mon_1_close":"19:00","wed_1_open":"12:00","wed_1_close":"19:00","tue_1_open":"12:00","fri_1_open":"12:00","thu_1_close":"19:00"},"address":"台北市八德路四段123號1樓","lat":25.048778643033,"long":121.56187407391,"area":"Taipei","city":"Taipei"},{"_id":{"$oid":"5878e844b97e4a09abd6b149"},"id":"590248771141896","phone":"0939969118","location":{"street":"雲林縣二崙鄉來惠村惠來路28號","zip":"649"},"name":"來惠社區發展協會 小豬的故鄉"},{"_id":{"$oid":"5878e844b97e4a09abd6b14a"},"phone":"08-7898822","id":"123468114370808","location":{"city":"Pingtunghsien","zip":"92055","country":"Taiwan","longitude":120.55909187181,"street":"屏東縣潮州鎮潮州路800號","latitude":22.546826575563},"name":"8大森林魔法樂園","ontime":{"sun_1_close":"17:00","sat_1_close":"17:00","sun_1_open":"08:30","fri_1_close":"17:00","thu_1_open":"08:30","tue_1_close":"17:00","sat_1_open":"08:30","mon_1_open":"08:30","mon_1_close":"17:00","wed_1_open":"08:30","wed_1_close":"17:00","tue_1_open":"08:30","fri_1_open":"08:30","thu_1_close":"17:00"},"address":"屏東縣潮州鎮潮州路800號","lat":22.546826575563,"long":120.55909187181,"area":"Pingtunghsien","city":"Pingtunghsien"},{"_id":{"$oid":"5878e844b97e4a09abd6b14b"},"phone":"(02)2610-5300","id":"298753329674","location":{"city":"Xinbei","zip":"249","country":"Taiwan","longitude":121.42547458498,"street":"台北縣八里鄉觀海大道111號","latitude":25.161908093033},"name":"芭達桑原住民主題餐廳","ontime":{"sun_1_close":"23:00","sat_1_close":"23:00","sun_1_open":"11:30","fri_1_close":"22:00","thu_1_open":"11:30","tue_1_close":"22:00","sat_1_open":"11:30","mon_1_open":"11:30","mon_1_close":"22:00","wed_1_open":"11:30","wed_1_close":"22:00","tue_1_open":"11:30","fri_1_open":"11:30","thu_1_close":"22:00"},"address":"台北縣八里鄉觀海大道111號","lat":25.161908093033,"long":121.42547458498,"area":"Xinbei","city":"Xinbei"},{"_id":{"$oid":"5878e844b97e4a09abd6b14c"},"phone":"03-3677720   ","id":"226824914117168","location":{"city":"Taoyüan","zip":"334","country":"Taiwan","longitude":121.29911,"street":"八德區介壽路二段73號","latitude":24.95604},"name":"八德親子館","ontime":{"sat_2_close":"17:00","sat_1_close":"12:30","sun_2_open":"13:30","tue_2_open":"13:30","thu_2_close":"17:00","sat_2_open":"13:30","thu_2_open":"13:30","sun_1_open":"09:00","fri_1_open":"09:00","tue_1_close":"12:30","sun_2_close":"17:00","wed_1_open":"09:00","wed_1_close":"12:30","tue_1_open":"09:00","thu_1_close":"12:30","sun_1_close":"12:30","fri_2_close":"17:00","sat_1_open":"09:00","fri_2_open":"13:30","wed_2_open":"13:30","tue_2_close":"17:00","thu_1_open":"09:00","wed_2_close":"17:00","fri_1_close":"12:30"},"address":"八德區介壽路二段73號","lat":24.95604,"long":121.29911,"area":"Taoyüan","city":"Taoyüan"},{"_id":{"$oid":"5878e844b97e4a09abd6b14d"},"phone":"(02)2356 8596","id":"977431802310923","location":{"city":"Taipei","zip":"106","country":"Taiwan","longitude":121.52591,"street":"金山南路二段218號B1","latitude":25.02777},"name":"焙客樂園 Baker Land","ontime":{"sun_1_close":"15:30","sat_1_close":"15:30","sun_1_open":"09:30","fri_1_close":"19:00","thu_1_open":"09:00","tue_1_close":"19:00","sat_1_open":"09:30","mon_1_open":"09:00","mon_1_close":"19:00","wed_1_open":"09:00","wed_1_close":"19:00","tue_1_open":"09:00","fri_1_open":"09:00","thu_1_close":"19:00"},"address":"金山南路二段218號B1","lat":25.02777,"long":121.52591,"area":"Taipei","city":"Taipei"},{"_id":{"$oid":"5878e844b97e4a09abd6b14e"},"phone":"075526919","id":"1802982373293031","location":{"city":"Kaohsiung","zip":"80454","country":"Taiwan","longitude":120.2968341,"street":"高雄市鼓山區華榮路291號2樓","latitude":22.6661554},"name":"柒零生手做 DIY烘焙","ontime":{"sun_1_close":"22:00","sat_1_close":"22:00","sun_1_open":"10:00","fri_1_close":"22:00","thu_1_open":"10:00","tue_1_close":"22:00","sat_1_open":"10:00","mon_1_open":"10:00","mon_1_close":"22:00","wed_1_open":"10:00","wed_1_close":"22:00","tue_1_open":"10:00","fri_1_open":"10:00","thu_1_close":"22:00"},"address":"高雄市鼓山區華榮路291號2樓","lat":22.6661554,"long":120.2968341,"area":"Kaohsiung","city":"Kaohsiung"},{"_id":{"$oid":"5878e844b97e4a09abd6b14f"},"id":"145087492198111","phone":"04-25951998","location":{"city":"Taichung","zip":"424","country":"Taiwan","longitude":121.01061405055,"street":"和平區東關路一段溫泉巷10號","latitude":24.204032296092},"name":"惠來谷關溫泉會館","address":"和平區東關路一段溫泉巷10號","lat":24.204032296092,"long":121.01061405055,"area":"Taichung","city":"Taichung"},{"_id":{"$oid":"5878e844b97e4a09abd6b150"},"id":"102671119855092","location":{"city":"Taitung","zip":"955","country":"Taiwan","longitude":121.13814,"street":"鹿野高臺","latitude":22.91717},"name":"臺灣熱氣球嘉年華-Taiwan Balloon Festival","ontime":{"sat_2_close":"19:00","sat_1_close":"07:30","sun_2_open":"17:00","tue_2_open":"17:00","thu_2_close":"19:00","mon_1_open":"05:30","sat_2_open":"17:00","thu_2_open":"17:00","mon_2_open":"17:00","sun_1_open":"05:30","fri_1_open":"05:30","tue_1_close":"07:30","sun_2_close":"19:00","wed_1_open":"05:30","wed_1_close":"07:30","tue_1_open":"05:30","thu_1_close":"07:30","sun_1_close":"07:30","mon_2_close":"19:00","fri_2_close":"19:00","sat_1_open":"05:30","mon_1_close":"07:30","fri_2_open":"17:00","wed_2_open":"17:00","tue_2_close":"19:00","thu_1_open":"05:30","wed_2_close":"19:00","fri_1_close":"07:30"},"address":"鹿野高臺","lat":22.91717,"long":121.13814,"area":"Taitung","city":"Taitung"},{"_id":{"$oid":"5878e844b97e4a09abd6b151"},"phone":"049-2623928","id":"201733026525474","location":{"latitude":23.81135873421,"city":"南投縣","street":"竹山鎮富州里富州巷31號","zip":"557","longitude":120.74850082397},"name":"青竹文化園區 \u0026 隱竹別院民宿","ontime":{"sun_1_close":"17:00","sat_1_close":"17:00","sun_1_open":"09:00","thu_1_open":"09:00","sat_1_open":"09:00","mon_1_open":"09:00","mon_1_close":"17:00","thu_1_close":"17:00","fri_1_open":"09:00","fri_1_close":"17:00"}},{"_id":{"$oid":"5878e844b97e4a09abd6b152"},"id":"198803003496418","phone":"049-2639167 / 049-2639161","location":{"city":"Nantou","zip":"557","country":"Taiwan","longitude":120.71895134284,"street":"竹山鎮東鄉路1-67號","latitude":23.765223797313},"name":"竹屋部落民宿-附設餐廳","address":"竹山鎮東鄉路1-67號","lat":23.765223797313,"long":120.71895134284,"area":"Nantou","city":"Nantou"},{"_id":{"$oid":"5878e844b97e4a09abd6b153"},"phone":"0423768863","id":"549501545208370","location":{"city":"Taichung","zip":"403","country":"Taiwan","longitude":120.66435,"street":"西區五權西一街63號","latitude":24.13713},"name":"抱抱廚房","ontime":{"sun_1_close":"21:00","sat_1_close":"21:00","sun_1_open":"11:00","fri_1_close":"20:30","thu_1_open":"11:30","tue_1_close":"20:30","sat_1_open":"11:00","mon_1_open":"11:30","mon_1_close":"20:30","wed_1_open":"11:30","wed_1_close":"20:30","tue_1_open":"11:30","fri_1_open":"11:30","thu_1_close":"20:30"},"address":"西區五權西一街63號","lat":24.13713,"long":120.66435,"area":"Taichung","city":"Taichung"},{"_id":{"$oid":"5878e844b97e4a09abd6b154"},"id":"330209353758531","phone":"06-209-1102","location":{"latitude":22.973807144309,"city":"Tainan","longitude":120.22169041654,"country":"Taiwan"},"name":"巴克禮公園-台南市巴克禮紀念公園永續經營協會","area":"Tainan","city":"Tainan"},{"_id":{"$oid":"5878e844b97e4a09abd6b155"},"phone":"0289419669","id":"1662906190638434","location":{"city":"Xinbei","zip":"234","country":"Taiwan","longitude":121.51569,"street":"永和區中正路115號","latitude":24.99768},"name":"Barks咖啡概念館","ontime":{"sun_1_close":"21:00","sat_1_close":"21:00","sun_1_open":"09:30","fri_1_close":"21:00","thu_1_open":"09:30","tue_1_close":"21:00","sat_1_open":"09:30","mon_1_open":"09:30","mon_1_close":"21:00","tue_1_open":"09:30","fri_1_open":"11:00","thu_1_close":"21:00"},"address":"永和區中正路115號","lat":24.99768,"long":121.51569,"area":"Xinbei","city":"Xinbei"},{"_id":{"$oid":"5878e844b97e4a09abd6b156"},"phone":"063501202","id":"173948686115973","location":{"city":"Tainan","zip":"70061","country":"Taiwan","longitude":120.1825113,"street":"台南市中西區和緯路五段193號","latitude":23.0050375},"name":"【童樂多】兒童桌遊親子餐廳遊戲室","ontime":{"sun_1_close":"19:00","sat_1_close":"19:00","sun_1_open":"10:00","fri_1_close":"19:00","thu_1_open":"10:00","tue_1_close":"19:00","sat_1_open":"10:00","wed_1_open":"10:00","wed_1_close":"19:00","tue_1_open":"10:00","fri_1_open":"10:00","thu_1_close":"19:00"},"address":"台南市中西區和緯路五段193號","lat":23.0050375,"long":120.1825113,"area":"Tainan","city":"Tainan"},{"_id":{"$oid":"5878e844b97e4a09abd6b157"},"phone":"062227195","id":"1505528686395040","location":{"city":"臺南市","street":"臺南市南區西門路一段689巷","zip":"700"},"name":"藍晒圖文創園區","ontime":{"sun_1_close":"21:00","sat_1_close":"21:00","sun_1_open":"14:00","thu_1_open":"14:00","sat_1_open":"14:00","mon_1_open":"14:00","mon_1_close":"21:00","wed_1_open":"14:00","wed_1_close":"21:00","fri_1_close":"21:00","fri_1_open":"14:00","thu_1_close":"21:00"}},{"_id":{"$oid":"5878e844b97e4a09abd6b158"},"phone":"0228058189","id":"203004266430673","location":{"city":"Xinbei","zip":"25154","country":"Taiwan","longitude":121.41855677869,"street":"新北市淡水區淡海路280巷33弄36號","latitude":25.189147770065},"name":"綠野馬術文創園區","ontime":{"sun_1_close":"18:00","sat_1_close":"18:00","sun_1_open":"09:00","fri_1_close":"18:00","thu_1_open":"09:00","tue_1_close":"18:00","sat_1_open":"09:00","wed_1_open":"09:00","wed_1_close":"18:00","tue_1_open":"09:00","fri_1_open":"09:00","thu_1_close":"18:00"},"address":"新北市淡水區淡海路280巷33弄36號","lat":25.189147770065,"long":121.41855677869,"area":"Xinbei","city":"Xinbei"},{"_id":{"$oid":"5878e844b97e4a09abd6b159"},"id":"322790567927916","phone":"0937156720","location":{"city":"Hsinchu","zip":"31342","country":"Taiwan","longitude":121.2566,"street":"尖石鄉新樂村水田部落","latitude":24.73477},"name":"北得拉曼休閒營地","address":"尖石鄉新樂村水田部落","lat":24.73477,"long":121.2566,"area":"Hsinchu","city":"Hsinchu"},{"_id":{"$oid":"5878e844b97e4a09abd6b15a"},"id":"188495917856088","phone":"02-26720362","location":{"city":"Xinbei","zip":"237","country":"Taiwan","longitude":121.4060825,"street":"三峽區有木里194-1號","latitude":24.9472961},"name":"BeeWorld","address":"三峽區有木里194-1號","lat":24.9472961,"long":121.4060825,"area":"Xinbei","city":"Xinbei"},{"_id":{"$oid":"5878e844b97e4a09abd6b15b"},"phone":"0980618781","id":"1688287698096239","location":{"city":"Puli","zip":"545","country":"Taiwan","longitude":120.99992,"street":"南投縣埔里鎮鯉魚路22-8號","latitude":23.96555},"name":"埔里鯉魚潭．賽德克公主之熊本部親子露營區","ontime":{"sun_1_close":"23:00","sat_1_close":"23:00","sun_1_open":"08:00","fri_1_close":"23:00","thu_1_open":"08:00","tue_1_close":"23:00","sat_1_open":"08:00","mon_1_open":"08:00","mon_1_close":"23:00","wed_1_open":"08:00","wed_1_close":"23:00","tue_1_open":"08:00","fri_1_open":"08:00","thu_1_close":"23:00"},"address":"南投縣埔里鎮鯉魚路22-8號","lat":23.96555,"long":120.99992,"area":"Puli","city":"Puli"},{"_id":{"$oid":"5878e844b97e4a09abd6b15c"},"id":"799357980081863","phone":"0963735617","location":{"city":"Taitung","zip":"950","country":"Taiwan","longitude":121.13859437911,"street":"台東市豐榮路90巷36號","latitude":22.749771165592},"name":"台東貓追熊民宿兒童電動車溜滑梯沙坑親子民宿","address":"台東市豐榮路90巷36號","lat":22.749771165592,"long":121.13859437911,"area":"Taitung","city":"Taitung"},{"_id":{"$oid":"5878e844b97e4a09abd6b15d"},"phone":"0989668709","id":"1652890804955133","location":{"city":"Miaoli","zip":"351","country":"Taiwan","longitude":120.9076,"street":"頭份鎮和平路43號2樓","latitude":24.68417},"name":"熊熊歡樂屋/親子遊樂餐廳","ontime":{"sun_1_close":"19:30","sat_1_close":"19:30","sun_1_open":"10:00","thu_1_open":"10:00","sat_1_open":"10:00","mon_1_open":"10:00","mon_1_close":"16:00","wed_1_open":"10:00","wed_1_close":"16:00","fri_1_close":"16:00","fri_1_open":"10:00","thu_1_close":"16:00"},"address":"頭份鎮和平路43號2樓","lat":24.68417,"long":120.9076,"area":"Miaoli","city":"Miaoli"},{"_id":{"$oid":"5878e844b97e4a09abd6b15e"},"id":"751019474984365","phone":"0287870131","location":{"city":"Taipei","zip":"110","country":"Taiwan","longitude":121.5653305,"street":"信義區基隆路一段155號B1 (萬世大樓)","latitude":25.0422096},"name":"貝兒絲樂園","address":"信義區基隆路一段155號B1 (萬世大樓)","lat":25.0422096,"long":121.5653305,"area":"Taipei","city":"Taipei"},{"_id":{"$oid":"5878e844b97e4a09abd6b15f"},"id":"751019474984365","phone":"0287870131","location":{"city":"Taipei","zip":"110","country":"Taiwan","longitude":121.5653305,"street":"信義區基隆路一段155號B1 (萬世大樓)","latitude":25.0422096},"name":"貝兒絲樂園","address":"信義區基隆路一段155號B1 (萬世大樓)","lat":25.0422096,"long":121.5653305,"area":"Taipei","city":"Taipei"},{"_id":{"$oid":"5878e844b97e4a09abd6b160"},"phone":"03-9233668( Honey Cafe03-9233990)","id":"174054362630761","location":{"city":"Yilan City","zip":"26444","country":"Taiwan","longitude":121.68462862582,"street":"宜蘭縣員山鄉員山路二段403號","latitude":24.70854320564},"name":"養蜂人家-蜂采館","ontime":{"sun_1_close":"17:00","sat_1_close":"17:00","sun_1_open":"08:30","fri_1_close":"17:00","thu_1_open":"08:30","tue_1_close":"17:00","sat_1_open":"08:30","mon_1_open":"08:30","mon_1_close":"17:00","wed_1_open":"08:30","wed_1_close":"17:00","tue_1_open":"08:30","fri_1_open":"08:30","thu_1_close":"17:00"},"address":"宜蘭縣員山鄉員山路二段403號","lat":24.70854320564,"long":121.68462862582,"area":"Yilan City","city":"Yilan City"},{"_id":{"$oid":"5878e844b97e4a09abd6b161"},"phone":"0961555515","id":"123026274445906","location":{"latitude":25.217408121441,"city":"新北市金山區重和里","street":"重和里六股林口74號","zip":"208","longitude":121.60123339487},"name":"金山汪汪地瓜園","ontime":{"sun_1_close":"19:00","sat_1_close":"19:00","sun_1_open":"09:30","fri_1_close":"17:00","thu_1_open":"09:30","tue_1_close":"17:00","sat_1_open":"09:30","wed_1_open":"09:30","wed_1_close":"17:00","tue_1_open":"09:30","fri_1_open":"09:30","thu_1_close":"17:00"}},{"_id":{"$oid":"5878e844b97e4a09abd6b162"},"id":"1706096932946657","phone":"057835109","location":{"city":"Tai","zip":"651","country":"Taiwan","longitude":120.30499633833,"street":"雲林縣北港鎮義民路190號","latitude":23.571304485833},"name":"雲林縣北港鎮公舘社區發展協會","address":"雲林縣北港鎮義民路190號","lat":23.571304485833,"long":120.30499633833,"area":"Tai","city":"Tai"},{"_id":{"$oid":"5878e844b97e4a09abd6b163"},"id":"280036222082951","phone":"049-2461776","location":{"city":"Nantow","zip":"54446","country":"Taiwan","longitude":120.93533029151,"street":"南投縣國姓鄉北港村北原路34-1號","latitude":24.062539711511},"name":"北港溪沙八渡假村","address":"南投縣國姓鄉北港村北原路34-1號","lat":24.062539711511,"long":120.93533029151,"area":"Nantow","city":"Nantow"},{"_id":{"$oid":"5878e844b97e4a09abd6b164"},"phone":"0933980007","id":"1572256093000346","location":{"city":"Miaoli","zip":"367","country":"Taiwan","longitude":120.77746339593,"street":"苗栗縣三義鄉龍騰村13鄰龍騰3號","latitude":24.376718207907},"name":"貝岩居農場","ontime":{"sun_1_close":"15:30","sat_1_open":"09:30","sat_1_close":"15:30","sun_1_open":"09:30"},"address":"苗栗縣三義鄉龍騰村13鄰龍騰3號","lat":24.376718207907,"long":120.77746339593,"area":"Miaoli","city":"Miaoli"},{"_id":{"$oid":"5878e844b97e4a09abd6b165"},"phone":"02 8729-2771","id":"128357900521402","location":{"city":"Taipei","zip":"11073","country":"Taiwan","longitude":121.56818,"street":"台北市信義區松仁路28號","latitude":25.03924},"name":"BELLAVITA","ontime":{"sun_1_close":"22:00","sat_1_close":"22:30","sun_1_open":"10:30","fri_1_close":"22:30","thu_1_open":"10:30","tue_1_close":"22:00","sat_1_open":"10:30","mon_1_open":"10:30","mon_1_close":"22:00","wed_1_open":"10:30","wed_1_close":"22:00","tue_1_open":"10:30","fri_1_open":"10:30","thu_1_close":"22:00"},"address":"台北市信義區松仁路28號","lat":25.03924,"long":121.56818,"area":"Taipei","city":"Taipei"},{"_id":{"$oid":"5878e844b97e4a09abd6b166"},"phone":"02-22442999","id":"919178298138696","location":{"city":"Xinbei","zip":"235","country":"Taiwan","longitude":121.495285,"street":"中和區中山路2段305號1樓","latitude":25.0021458},"name":"班尼弟親子食．遊館 【親子餐廳】","ontime":{"sun_1_close":"21:00","sat_1_close":"21:00","sun_1_open":"11:00","fri_1_close":"20:00","thu_1_open":"10:00","tue_1_close":"20:00","sat_1_open":"11:00","wed_1_open":"10:00","wed_1_close":"20:00","tue_1_open":"10:00","fri_1_open":"10:00","thu_1_close":"20:00"},"address":"中和區中山路2段305號1樓","lat":25.0021458,"long":121.495285,"area":"Xinbei","city":"Xinbei"},{"_id":{"$oid":"5878e844b97e4a09abd6b167"},"phone":"048332632","id":"260428320771252","location":{"city":"Yuanlin","zip":"510","country":"Taiwan","longitude":120.57675,"street":"員林鎮大勇街5號","latitude":23.96923},"name":"魚你在一起親子屋-員林店","ontime":{"sun_1_close":"21:00","sat_1_close":"21:00","sun_1_open":"10:00","fri_1_close":"21:00","thu_1_open":"11:00","tue_1_close":"21:00","sat_1_open":"10:00","wed_1_open":"11:00","wed_1_close":"21:00","tue_1_open":"11:00","fri_1_open":"11:00","thu_1_close":"21:00"},"address":"員林鎮大勇街5號","lat":23.96923,"long":120.57675,"area":"Yuanlin","city":"Yuanlin"},{"_id":{"$oid":"5878e844b97e4a09abd6b168"},"id":"10150103613835720","phone":"03-9232209","location":{"city":"Ilan","zip":"264","country":"Taiwan","longitude":121.712,"street":"宜蘭縣員山鄉枕山村枕山路149-41號","latitude":24.767963},"name":"波的農場---食蟲植物館","address":"宜蘭縣員山鄉枕山村枕山路149-41號","lat":24.767963,"long":121.712,"area":"Ilan","city":"Ilan"},{"_id":{"$oid":"5878e844b97e4a09abd6b169"},"phone":"0952333343","id":"981712895219372","location":{"city":"Taoyüan","zip":"327","country":"Taiwan","longitude":121.01757,"street":"桃園市新屋區笨港村8鄰笨子港50-7號(綠色隧道)","latitude":24.98141},"name":"大腳ㄚ農莊","ontime":{"sun_1_close":"17:00","sat_1_close":"17:00","sun_1_open":"10:00","thu_1_open":"10:30","sat_1_open":"10:00","mon_1_open":"10:30","mon_1_close":"17:00","wed_1_open":"10:30","wed_1_close":"17:00","fri_1_close":"17:00","fri_1_open":"10:30","thu_1_close":"17:00"},"address":"桃園市新屋區笨港村8鄰笨子港50-7號(綠色隧道)","lat":24.98141,"long":121.01757,"area":"Taoyüan","city":"Taoyüan"},{"_id":{"$oid":"5878e844b97e4a09abd6b16a"},"phone":"03-5936439","id":"252319984954034","location":{"latitude":24.691738972326,"city":"Hsinchu","street":"新竹縣橫山鄉豐鄉村大山背5鄰80號","longitude":121.14104278809,"country":"Taiwan"},"name":"大山北月","ontime":{"sun_1_close":"17:00","sat_1_close":"17:00","sun_1_open":"09:00","fri_1_close":"17:00","thu_1_open":"10:30","tue_1_close":"17:00","sat_1_open":"09:00","wed_1_open":"10:30","wed_1_close":"17:00","tue_1_open":"10:30","fri_1_open":"10:30","thu_1_close":"17:00"},"area":"Hsinchu","city":"Hsinchu"},{"_id":{"$oid":"5878e844b97e4a09abd6b16b"},"phone":"04-8369939","id":"1504623699829243","location":{"city":"Shetou","zip":"510","country":"Taiwan","longitude":120.61924,"street":"員林市林厝里山腳路一段坡姜巷445號","latitude":23.93414},"name":"貝康休閒會館","ontime":{"sun_1_close":"00:00","sat_1_close":"00:00","sun_1_open":"11:00","fri_1_close":"00:00","thu_1_open":"17:00","tue_1_close":"00:00","sat_1_open":"11:00","mon_1_open":"17:00","mon_1_close":"00:00","wed_1_open":"17:00","wed_1_close":"00:00","tue_1_open":"17:00","fri_1_open":"17:00","thu_1_close":"00:00"},"address":"員林市林厝里山腳路一段坡姜巷445號","lat":23.93414,"long":120.61924,"area":"Shetou","city":"Shetou"},{"_id":{"$oid":"5878e844b97e4a09abd6b16c"},"phone":"02-2208-2299 (總部電話)","id":"111713548879684","location":{"city":"Xinbei","zip":"220","country":"Taiwan","longitude":121.47246878333,"street":"新北市新莊區新樹路302巷7號","latitude":25.026317836667},"name":"黑丸嫩仙草","ontime":{"fri_1_open":"09:00","mon_1_open":"09:00","mon_1_close":"17:00","fri_1_close":"17:00"},"address":"新北市新莊區新樹路302巷7號","lat":25.026317836667,"long":121.47246878333,"area":"Xinbei","city":"Xinbei"},{"_id":{"$oid":"5878e844b97e4a09abd6b16d"},"phone":"062616990#12","id":"668666923154154","location":{"city":"Tainan","zip":"702","country":"Taiwan","longitude":120.18457,"street":"南區新忠路2號","latitude":22.9798},"name":"黑橋牌香腸博物館","ontime":{"sun_1_close":"17:30","sat_1_close":"17:30","sun_1_open":"09:30","fri_1_close":"17:30","thu_1_open":"09:30","tue_1_close":"17:30","sat_1_open":"09:30","wed_1_open":"09:30","wed_1_close":"17:30","tue_1_open":"09:30","fri_1_open":"09:30","thu_1_close":"17:30"},"address":"南區新忠路2號","lat":22.9798,"long":120.18457,"area":"Tainan","city":"Tainan"},{"_id":{"$oid":"5878e844b97e4a09abd6b16e"},"phone":"(02)2776-2755","id":"1024236464297306","location":{"city":"Taipei","zip":"106","country":"Taiwan","longitude":121.54694,"street":"大安區大安路一段19巷16號一樓","latitude":25.04432},"name":"星座小熊主題餐廳 BluesBear Café","ontime":{"sun_1_close":"22:00","sat_1_close":"22:00","sun_1_open":"11:30","fri_1_close":"22:00","thu_1_open":"11:30","tue_1_close":"22:00","sat_1_open":"11:30","mon_1_open":"11:30","mon_1_close":"22:00","wed_1_open":"11:30","wed_1_close":"22:00","tue_1_open":"11:30","fri_1_open":"11:30","thu_1_close":"22:00"},"address":"大安區大安路一段19巷16號一樓","lat":25.04432,"long":121.54694,"area":"Taipei","city":"Taipei"},{"_id":{"$oid":"5878e844b97e4a09abd6b16f"},"phone":"03-928-1168","id":"197586983610047","location":{"city":"Yilan City","zip":"260","country":"Taiwan","longitude":121.73537845441,"street":"宜蘭市梅洲一路22號","latitude":24.776417250306},"name":"菌寶貝博物館","ontime":{"sun_1_close":"17:00","sat_1_close":"17:00","sun_1_open":"09:00","fri_1_close":"17:00","thu_1_open":"09:00","tue_1_close":"17:00","sat_1_open":"09:00","mon_1_open":"09:00","mon_1_close":"17:00","wed_1_open":"09:00","wed_1_close":"17:00","tue_1_open":"09:00","fri_1_open":"09:00","thu_1_close":"17:00"},"address":"宜蘭市梅洲一路22號","lat":24.776417250306,"long":121.73537845441,"area":"Yilan City","city":"Yilan City"},{"_id":{"$oid":"5878e844b97e4a09abd6b170"},"id":"110702125634330","phone":"0937523858","location":{"city":"Yilan City","zip":"268","country":"Taiwan","longitude":121.8185883,"street":"宜蘭縣五結鄉大眾北路15-7號","latitude":24.7002106},"name":"宜蘭民宿-川月星城","address":"宜蘭縣五結鄉大眾北路15-7號","lat":24.7002106,"long":121.8185883,"area":"Yilan City","city":"Yilan City"},{"_id":{"$oid":"5878e844b97e4a09abd6b171"},"phone":"0809 037 888","id":"224101617778624","location":{"city":"Chungli","zip":"320","country":"Taiwan","longitude":121.2239,"street":"中美路一段12號5樓","latitude":24.95954},"name":"Bon Bon City","ontime":{"sun_1_close":"19:00","sat_1_close":"19:00","sun_1_open":"10:30","fri_1_close":"18:00","thu_1_open":"10:30","tue_1_close":"18:00","sat_1_open":"10:30","mon_1_open":"10:30","mon_1_close":"18:00","wed_1_open":"10:30","wed_1_close":"18:00","tue_1_open":"10:30","fri_1_open":"10:30","thu_1_close":"18:00"},"address":"中美路一段12號5樓","lat":24.95954,"long":121.2239,"area":"Chungli","city":"Chungli"},{"_id":{"$oid":"5878e844b97e4a09abd6b172"},"phone":"(04)3700-4278","id":"221387734634945","location":{"city":"Taichung","zip":"403","country":"Taiwan","longitude":120.66276847865,"street":"台中市西區健行路1049號6F","latitude":24.155248958307},"name":"棒恰恰親子餐廳","ontime":{"sun_1_close":"22:00","sat_1_close":"22:00","sun_1_open":"10:30","fri_1_close":"22:00","thu_1_open":"11:00","tue_1_close":"22:00","sat_1_open":"10:30","mon_1_open":"11:00","mon_1_close":"22:00","wed_1_open":"11:00","wed_1_close":"22:00","tue_1_open":"11:00","fri_1_open":"11:00","thu_1_close":"22:00"},"address":"台中市西區健行路1049號6F","lat":24.155248958307,"long":120.66276847865,"area":"Taichung","city":"Taichung"},{"_id":{"$oid":"5878e844b97e4a09abd6b173"},"id":"460764040723777","phone":"08-886-7565/  0963-785-723","location":{"city":"Hengchun","zip":"94645","country":"Taiwan","longitude":120.73301443866,"street":"屏東縣恆春鎮大光里砂尾路71-3號","latitude":21.955529285492},"name":"日安寶貝BonjourBebe","address":"屏東縣恆春鎮大光里砂尾路71-3號","lat":21.955529285492,"long":120.73301443866,"area":"Hengchun","city":"Hengchun"},{"_id":{"$oid":"5878e844b97e4a09abd6b174"},"phone":"(03)409-3838","id":"1580431252283149","location":{"city":"Taoyüan","zip":"325","country":"Taiwan","longitude":121.23321,"street":"桃園市龍潭區民族路520號","latitude":24.83337},"name":"邦妮義饗世界","ontime":{"sun_1_close":"20:30","sat_1_close":"20:30","sun_1_open":"11:00","fri_1_close":"20:30","thu_1_open":"11:00","tue_1_close":"20:30","sat_1_open":"11:00","mon_1_open":"11:00","mon_1_close":"20:30","wed_1_open":"11:00","wed_1_close":"20:30","tue_1_open":"11:00","fri_1_open":"11:00","thu_1_close":"20:30"},"address":"桃園市龍潭區民族路520號","lat":24.83337,"long":121.23321,"area":"Taoyüan","city":"Taoyüan"},{"_id":{"$oid":"5878e844b97e4a09abd6b175"},"phone":"02-27000488","id":"502125746491281","location":{"city":"Taipei","zip":"10685","country":"Taiwan","longitude":121.5572815,"street":"台北市光復南路626號12F-1","latitude":25.0317802},"name":"長靴貓繪本館","ontime":{"mon_1_open":"10:00","mon_1_close":"16:00"},"address":"台北市光復南路626號12F-1","lat":25.0317802,"long":121.5572815,"area":"Taipei","city":"Taipei"},{"_id":{"$oid":"5878e844b97e4a09abd6b176"},"id":"519093388255384","phone":"08-882-5765","location":{"city":"Checheng","zip":"94443","country":"Taiwan","longitude":120.71648,"street":"海口路6-5號","latitude":22.08969},"name":"墾丁泊逸渡假酒店","address":"海口路6-5號","lat":22.08969,"long":120.71648,"area":"Checheng","city":"Checheng"},{"_id":{"$oid":"5878e844b97e4a09abd6b177"},"id":"174557856079064","phone":"02-77035777","location":{"city":"Xinbei","zip":"207","country":"Taiwan","longitude":121.689613,"street":"萬里區野柳里港東路162-2號","latitude":25.2052478},"name":"野柳泊逸渡假酒店","address":"萬里區野柳里港東路162-2號","lat":25.2052478,"long":121.689613,"area":"Xinbei","city":"Xinbei"},{"_id":{"$oid":"5878e844b97e4a09abd6b178"},"phone":"0933324381","id":"426093957509626","location":{"city":"Taichung","zip":"40760","country":"Taiwan","longitude":120.6382134018,"street":"No.982-1, Sec. 2, Huanzhong Rd., Xitun Dist., Taichung City 407","latitude":24.187711027269},"name":"B-Plus Bouldering Gym","ontime":{"sun_1_close":"19:00","sat_1_close":"21:00","sun_1_open":"13:00","fri_1_close":"23:00","thu_1_open":"18:00","tue_1_close":"23:00","sat_1_open":"13:00","wed_1_open":"18:00","wed_1_close":"23:00","tue_1_open":"18:00","fri_1_open":"18:00","thu_1_close":"23:00"},"address":"No.982-1, Sec. 2, Huanzhong Rd., Xitun Dist., Taichung City 407","lat":24.187711027269,"long":120.6382134018,"area":"Taichung","city":"Taichung"},{"_id":{"$oid":"5878e844b97e4a09abd6b179"},"phone":"(02)2961-0601","id":"163027707132526","location":{"city":"新北市 （New Taipei City）","street":"板橋區漢生東路258號2樓(板橋大遠百後門旁邊的畫世紀大樓)","zip":"220"},"name":"新北市板橋新板公共托育中心","ontime":{"sun_1_close":"12:00","sat_1_close":"15:00","sun_1_open":"10:00","fri_1_close":"17:30","thu_1_open":"11:00","tue_1_close":"17:30","sat_1_open":"10:00","wed_1_open":"11:00","wed_1_close":"17:30","tue_1_open":"11:00","fri_1_open":"11:00","thu_1_close":"17:30"}},{"_id":{"$oid":"5878e844b97e4a09abd6b17a"},"phone":"037690096","id":"223552221102567","location":{"city":"Toufen","zip":"351","country":"Taiwan","longitude":120.90315,"street":"東民三街7號","latitude":24.6883899},"name":"BQ Cafe'","ontime":{"sun_1_close":"20:30","sat_1_close":"20:30","sun_1_open":"10:00","fri_1_close":"15:00","thu_1_open":"11:30","tue_1_close":"15:00","sat_1_open":"10:00","mon_1_open":"11:30","mon_1_close":"15:00","wed_1_open":"11:30","wed_1_close":"15:00","tue_1_open":"11:30","fri_1_open":"11:30","thu_1_close":"15:00"},"address":"東民三街7號","lat":24.6883899,"long":120.90315,"area":"Toufen","city":"Toufen"},{"_id":{"$oid":"5878e844b97e4a09abd6b17b"},"phone":"(04)781-0077","id":"181378821905500","location":{"city":"Changhua","zip":"505","country":"Taiwan","longitude":120.40077087394,"street":"彰化縣鹿港鎮彰濱工業區鹿工路18號","latitude":24.078291158878},"name":"白蘭氏健康博物館","ontime":{"sun_1_close":"17:00","sat_1_close":"17:00","sun_1_open":"09:00","fri_1_close":"17:00","thu_1_open":"09:00","tue_1_close":"17:00","sat_1_open":"09:00","mon_1_open":"09:00","mon_1_close":"17:00","wed_1_open":"09:00","wed_1_close":"17:00","tue_1_open":"09:00","fri_1_open":"09:00","thu_1_close":"17:00"},"address":"彰化縣鹿港鎮彰濱工業區鹿工路18號","lat":24.078291158878,"long":120.40077087394,"area":"Changhua","city":"Changhua"},{"_id":{"$oid":"5878e844b97e4a09abd6b17c"},"phone":"033776861","id":"502613926527456","location":{"city":"Taoyüan","zip":"334","country":"Taiwan","longitude":121.30534,"street":"桃園市八德區忠勇一街31號1樓","latitude":24.96543},"name":"普拉伯義大利坊-八德店","ontime":{"sun_1_close":"21:30","sat_1_close":"21:30","sun_1_open":"11:30","fri_1_close":"21:00","thu_1_open":"12:00","tue_1_close":"21:00","sat_1_open":"11:30","mon_1_open":"12:00","mon_1_close":"21:00","wed_1_open":"12:00","wed_1_close":"21:00","tue_1_open":"12:00","fri_1_open":"12:00","thu_1_close":"21:00"},"address":"桃園市八德區忠勇一街31號1樓","lat":24.96543,"long":121.30534,"area":"Taoyüan","city":"Taoyüan"},{"_id":{"$oid":"5878e844b97e4a09abd6b17d"},"phone":"03 925 6180","id":"412138548948700","location":{"city":"Yilan City","zip":"26060","country":"Taiwan","longitude":121.76178,"street":"宜蘭縣縣政北路2號","latitude":24.73107},"name":"積木博物館 Brick Ark Museum","ontime":{"sun_1_close":"17:00","sat_1_close":"17:00","sun_1_open":"09:00","fri_1_close":"17:00","thu_1_open":"09:00","tue_1_close":"17:00","sat_1_open":"09:00","mon_1_open":"09:00","mon_1_close":"17:00","wed_1_open":"09:00","wed_1_close":"17:00","tue_1_open":"09:00","fri_1_open":"09:00","thu_1_close":"17:00"},"address":"宜蘭縣縣政北路2號","lat":24.73107,"long":121.76178,"area":"Yilan City","city":"Yilan City"},{"_id":{"$oid":"5878e844b97e4a09abd6b17e"},"id":"367878526663959","phone":"\u003c\u003cnot-applicable\u003e\u003e","location":{"latitude":25.069263794566,"city":"Taipei","zip":"104","longitude":121.52214646339,"country":"Taiwan"},"name":"BRICK Works Taipei","area":"Taipei","city":"Taipei"},{"_id":{"$oid":"5878e844b97e4a09abd6b180"},"phone":"29189300","id":"1428097524088487","location":{"city":"新北市新店區","street":"新北市新店區寶橋路八號","zip":"231"},"name":"北新國民小學附設幼兒園","ontime":{"fri_1_close":"16:00","thu_1_open":"08:00","tue_1_close":"16:00","mon_1_open":"08:00","mon_1_close":"16:00","wed_1_open":"08:00","wed_1_close":"16:00","tue_1_open":"08:00","fri_1_open":"08:00","thu_1_close":"16:00"}},{"_id":{"$oid":"5878e844b97e4a09abd6b182"},"id":"1110540242313702","phone":"055333383","location":{"city":"Yünlin","zip":"640","country":"Taiwan","longitude":120.538657,"street":"斗六市廈門街2號","latitude":23.710898},"name":"BuGu House","address":"斗六市廈門街2號","lat":23.710898,"long":120.538657,"area":"Yünlin","city":"Yünlin"},{"_id":{"$oid":"5878e844b97e4a09abd6b183"},"phone":"08-8333345","id":"149942058488815","location":{"city":"Pingtunghsien","zip":"928","country":"Taiwan","longitude":120.451686105,"street":"屏東縣東港鎮嘉蓮里嘉蓮路42-7號","latitude":22.44996816},"name":"變形特區o.b ZONE","ontime":{"sun_1_close":"00:00","sat_1_close":"00:00","sun_1_open":"11:00","fri_1_close":"00:00","thu_1_open":"16:00","tue_1_close":"00:00","sat_1_open":"11:00","mon_1_open":"16:00","mon_1_close":"00:00","tue_1_open":"16:00","fri_1_open":"16:00","thu_1_close":"00:00"},"address":"屏東縣東港鎮嘉蓮里嘉蓮路42-7號","lat":22.44996816,"long":120.451686105,"area":"Pingtunghsien","city":"Pingtunghsien"},{"_id":{"$oid":"5878e844b97e4a09abd6b184"},"phone":"02-27787947","id":"371040419634708","location":{"city":"Taipei","zip":"106","country":"Taiwan","longitude":121.55466296474,"street":"延吉街110號B1","latitude":25.040077801306},"name":"桌遊地下城Bungeon","ontime":{"sun_1_close":"23:45","sat_1_close":"23:45","sun_1_open":"12:30","fri_1_close":"23:30","thu_1_open":"14:30","tue_1_close":"23:30","sat_1_open":"12:30","mon_1_open":"14:30","mon_1_close":"23:30","wed_1_open":"14:30","wed_1_close":"23:30","tue_1_open":"14:30","fri_1_open":"14:30","thu_1_close":"23:30"},"address":"延吉街110號B1","lat":25.040077801306,"long":121.55466296474,"area":"Taipei","city":"Taipei"},{"_id":{"$oid":"5878e844b97e4a09abd6b185"},"phone":"(02)2278-2008","id":"709753789045223","location":{"city":"新北市","street":"三重區光復路一段80號","zip":"24158"},"name":"Burger Talks 淘客漢堡","ontime":{"sun_1_close":"21:00","sat_1_close":"21:00","sun_1_open":"10:30","fri_1_close":"21:00","thu_1_open":"10:30","tue_1_close":"21:00","sat_1_open":"10:30","mon_1_open":"10:30","mon_1_close":"21:00","wed_1_open":"10:30","wed_1_close":"21:00","tue_1_open":"10:30","fri_1_open":"10:30","thu_1_close":"21:00"}},{"_id":{"$oid":"5878e844b97e4a09abd6b186"},"phone":"06-2796037","id":"127893770599830","location":{"latitude":22.98003,"city":"Tainan","zip":"717","longitude":120.25971,"country":"Taiwan"},"name":"亞力山大蝴蝶生態教育農場","ontime":{"sun_1_close":"16:00","sat_1_close":"16:00","sun_1_open":"09:00","fri_1_close":"16:00","thu_1_open":"09:00","tue_1_close":"16:00","sat_1_open":"09:00","mon_1_open":"09:00","mon_1_close":"16:00","wed_1_open":"09:00","wed_1_close":"16:00","tue_1_open":"09:00","fri_1_open":"09:00","thu_1_close":"16:00"},"area":"Tainan","city":"Tainan"},{"_id":{"$oid":"5878e844b97e4a09abd6b187"},"phone":"0928627121","id":"105186602883948","location":{"street":"台北市士林區至善路三段292號","zip":"111"},"name":"千蝶谷昆蟲生態農場","ontime":{"sun_1_close":"17:00","sat_1_close":"17:00","sun_1_open":"09:00","fri_1_close":"17:00","thu_1_open":"09:00","tue_1_close":"17:00","sat_1_open":"09:00","mon_1_open":"09:00","mon_1_close":"17:00","wed_1_open":"09:00","wed_1_close":"17:00","tue_1_open":"09:00","fri_1_open":"09:00","thu_1_close":"17:00"}},{"_id":{"$oid":"5878e844b97e4a09abd6b188"},"phone":"03-4707979","id":"243037915730310","location":{"city":"Taoyüan","zip":"325","country":"Taiwan","longitude":121.18422031403,"street":"325桃園市龍潭區楊銅路二段688-1號","latitude":24.867709557596},"name":"白圍牆地中海景觀咖啡","ontime":{"sun_1_close":"02:00","sat_1_close":"03:00","sun_1_open":"12:00","fri_1_close":"02:00","thu_1_open":"12:00","tue_1_close":"02:00","sat_1_open":"12:00","mon_1_open":"12:00","mon_1_close":"02:00","wed_1_open":"12:00","wed_1_close":"02:00","tue_1_open":"12:00","fri_1_open":"12:00","thu_1_close":"02:00"},"address":"325桃園市龍潭區楊銅路二段688-1號","lat":24.867709557596,"long":121.18422031403,"area":"Taoyüan","city":"Taoyüan"},{"_id":{"$oid":"5878e844b97e4a09abd6b189"},"phone":"039325688","id":"413861348713655","location":{"city":"Yilan City","zip":"26045","country":"Taiwan","longitude":121.74912915,"street":"舊城西路三號","latitude":24.75697303125},"name":"宜蘭白葉陳文創","ontime":{"sun_1_close":"17:00","sat_1_close":"17:00","sun_1_open":"08:00","fri_1_close":"17:00","thu_1_open":"08:00","tue_1_close":"17:00","sat_1_open":"08:00","mon_1_open":"08:00","mon_1_close":"17:00","wed_1_open":"08:00","wed_1_close":"17:00","tue_1_open":"08:00","fri_1_open":"08:00","thu_1_close":"17:00"},"address":"舊城西路三號","lat":24.75697303125,"long":121.74912915,"area":"Yilan City","city":"Yilan City"},{"_id":{"$oid":"5878e844b97e4a09abd6b18a"},"id":"747603011985067","phone":"0936200517","location":{"city":"Yilan City","zip":"26444","country":"Taiwan","longitude":121.70115405283,"street":"宜蘭縣員山鄉八甲路22-21號","latitude":24.722066713962},"name":"童心園精緻親子休閒民宿","address":"宜蘭縣員山鄉八甲路22-21號","lat":24.722066713962,"long":121.70115405283,"area":"Yilan City","city":"Yilan City"},{"_id":{"$oid":"5878e844b97e4a09abd6b18b"},"phone":"02-86680995","id":"1423794434507270","location":{"city":"新北市新店區","street":"新北市新店區安和路三段100號","zip":"231"},"name":"新店新和公共托育中心","ontime":{"sat_2_close":"17:00","sat_1_close":"12:00","tue_2_open":"14:00","thu_2_close":"17:00","sat_2_open":"14:00","thu_2_open":"14:00","sun_1_open":"09:00","fri_1_open":"10:00","tue_1_close":"12:00","wed_1_open":"10:00","wed_1_close":"12:00","tue_1_open":"10:00","thu_1_close":"12:00","sun_1_close":"12:00","fri_2_close":"17:00","sat_1_open":"09:00","fri_2_open":"14:00","wed_2_open":"14:00","tue_2_close":"17:00","thu_1_open":"10:00","wed_2_close":"17:00","fri_1_close":"12:00"}},{"_id":{"$oid":"5878e844b97e4a09abd6b18c"},"phone":"02-89929662","id":"1040685289292257","location":{"latitude":25.0504,"city":"Xinbei","street":"立信三街12巷2號","longitude":121.44441,"country":"Taiwan"},"name":"卡琪朵複合式餐飲","ontime":{"sun_1_close":"21:00","sat_1_close":"21:00","sun_1_open":"11:30","fri_1_close":"21:00","thu_1_open":"11:30","tue_1_close":"21:00","sat_1_open":"11:30","mon_1_open":"11:30","mon_1_close":"21:00","wed_1_open":"11:30","wed_1_close":"21:00","tue_1_open":"11:30","fri_1_open":"11:30","thu_1_close":"21:00"},"area":"Xinbei","city":"Xinbei"},{"_id":{"$oid":"5878e844b97e4a09abd6b18d"},"phone":"087380018","id":"874361075928332","location":{"city":"Pingtung","zip":"900","country":"Taiwan","longitude":120.50464470571,"street":"屏東市大連路58-12號(近金礦咖啡)-六本木汽車旅館對面","latitude":22.682735264762},"name":"好日子 迷你石頭火鍋","ontime":{"sat_2_close":"22:00","sat_1_close":"14:00","sun_2_open":"17:00","tue_2_open":"17:00","thu_2_close":"22:00","sat_2_open":"17:00","thu_2_open":"17:00","sun_1_open":"11:00","fri_1_open":"11:00","tue_1_close":"14:00","sun_2_close":"22:00","wed_1_open":"11:00","wed_1_close":"14:00","tue_1_open":"11:00","thu_1_close":"14:00","sun_1_close":"14:00","fri_2_close":"22:00","sat_1_open":"11:00","fri_2_open":"17:00","wed_2_open":"17:00","tue_2_close":"22:00","thu_1_open":"11:00","wed_2_close":"22:00","fri_1_close":"14:00"},"address":"屏東市大連路58-12號(近金礦咖啡)-六本木汽車旅館對面","lat":22.682735264762,"long":120.50464470571,"area":"Pingtung","city":"Pingtung"},{"_id":{"$oid":"5878e844b97e4a09abd6b18e"},"id":"156381841042938","phone":"06-6874762","location":{"city":"Tainan","zip":"731","country":"Taiwan","longitude":120.35880270767,"street":"後壁區後壁42-27","latitude":23.359275914641},"name":"卡多利亞良食故事館","address":"後壁區後壁42-27","lat":23.359275914641,"long":120.35880270767,"area":"Tainan","city":"Tainan"},{"_id":{"$oid":"5878e844b97e4a09abd6b18f"},"phone":"033582066","id":"241693862693156","location":{"city":"Taoyüan","zip":"330","country":"Taiwan","longitude":121.30698437071,"street":"信光路52號","latitude":25.005919971257},"name":"Café 4 FUN 咖啡趣","ontime":{"sun_1_close":"21:00","sat_1_close":"21:00","sun_1_open":"11:00","fri_1_close":"21:00","thu_1_open":"11:30","tue_1_close":"21:00","sat_1_open":"11:00","wed_1_open":"11:30","wed_1_close":"21:00","tue_1_open":"11:30","fri_1_open":"11:30","thu_1_close":"21:00"},"address":"信光路52號","lat":25.005919971257,"long":121.30698437071,"area":"Taoyüan","city":"Taoyüan"},{"_id":{"$oid":"5878e844b97e4a09abd6b191"},"id":"889075017817358","phone":"0905281565","location":{"city":"Taichung","zip":"426","country":"Taiwan","longitude":120.80509,"street":"新社區協中街181號附近","latitude":24.19187},"name":"趣露營","address":"新社區協中街181號附近","lat":24.19187,"long":120.80509,"area":"Taichung","city":"Taichung"},{"_id":{"$oid":"5878e844b97e4a09abd6b192"},"phone":"0966742216","id":"556336151182769","location":{"city":"Nantou","zip":"544","country":"Taiwan","longitude":120.93422,"street":"No.51, Beizun Ln., Guoxing Township","latitude":24.07553},"name":"沐光山居-露頂計自然生態園區","ontime":{"fri_1_close":"22:00","thu_1_open":"09:00","tue_1_close":"22:00","mon_1_open":"09:00","mon_1_close":"22:00","wed_2_close":"00:00","wed_1_open":"09:00","wed_1_close":"22:00","tue_1_open":"09:00","wed_2_open":"23:00","fri_1_open":"09:00","thu_1_close":"22:00"},"address":"No.51, Beizun Ln., Guoxing Township","lat":24.07553,"long":120.93422,"area":"Nantou","city":"Nantou"},{"_id":{"$oid":"5878e844b97e4a09abd6b193"},"phone":"02-26193030","id":"594724530686171","location":{"city":"Xinbei","zip":"249","country":"Taiwan","longitude":121.41188621521,"street":"八里文化公園 (新北市八里區博物館路與忠孝路口，文化公園內)","latitude":25.164823789587},"name":"淡水巴黎 新北市八里文化公園露營區 Campinginbali","ontime":{"sun_1_close":"21:00","sat_1_close":"21:00","sun_1_open":"09:00","fri_1_close":"21:00","thu_1_open":"09:00","tue_1_close":"21:00","sat_1_open":"09:00","mon_1_open":"09:00","mon_1_close":"21:00","wed_1_open":"09:00","wed_1_close":"21:00","tue_1_open":"09:00","fri_1_open":"09:00","thu_1_close":"21:00"},"address":"八里文化公園 (新北市八里區博物館路與忠孝路口，文化公園內)","lat":25.164823789587,"long":121.41188621521,"area":"Xinbei","city":"Xinbei"},{"_id":{"$oid":"5878e844b97e4a09abd6b194"},"id":"1759843384304531","phone":"0955-156443","location":{"city":"Hsinchu","zip":"311","country":"Taiwan","longitude":121.08916282654,"street":"新竹縣五峰鄉桃山村 (白蘭部落)","latitude":24.581236571669},"name":"尤巴士露營區","address":"新竹縣五峰鄉桃山村 (白蘭部落)","lat":24.581236571669,"long":121.08916282654,"area":"Hsinchu","city":"Hsinchu"},{"_id":{"$oid":"5878e844b97e4a09abd6b195"},"phone":"0422080709","id":"1601345246835811","location":{"city":"Taichung","zip":"404","country":"Taiwan","longitude":120.66911,"street":"台中市北區華興街117巷10-1號","latitude":24.16226},"name":"Candy House親子餐廳","ontime":{"sun_1_close":"21:00","sat_1_close":"21:00","sun_1_open":"10:00","fri_1_close":"21:00","thu_1_open":"10:00","tue_1_close":"21:00","sat_1_open":"10:00","mon_1_open":"10:00","mon_1_close":"21:00","wed_1_open":"10:00","wed_1_close":"21:00","tue_1_open":"10:00","fri_1_open":"10:00","thu_1_close":"21:00"},"address":"台中市北區華興街117巷10-1號","lat":24.16226,"long":120.66911,"area":"Taichung","city":"Taichung"},{"_id":{"$oid":"5878e844b97e4a09abd6b196"},"phone":"035564331","id":"888416801270996","location":{"city":"Chupei","zip":"302","country":"Taiwan","longitude":120.96777677536,"street":"中正西路1446號","latitude":24.842223134178},"name":"CasA披薩專賣店","ontime":{"sun_1_close":"20:00","mon_2_open":"17:00","thu_2_open":"17:00","mon_2_close":"21:00","thu_2_close":"21:00","tue_2_open":"17:00","sun_1_open":"11:00","tue_1_close":"14:00","sat_1_close":"20:00","sat_1_open":"11:00","mon_1_open":"11:00","mon_1_close":"14:00","thu_1_close":"14:00","wed_2_close":"21:00","wed_1_open":"11:00","wed_1_close":"14:00","tue_1_open":"11:00","wed_2_open":"17:00","thu_1_open":"11:00","tue_2_close":"21:00"},"address":"中正西路1446號","lat":24.842223134178,"long":120.96777677536,"area":"Chupei","city":"Chupei"},{"_id":{"$oid":"5878e844b97e4a09abd6b197"},"phone":"03-255-1999","id":"511539948946937","location":{"city":"Taoyüan","zip":"338","country":"Taiwan","longitude":121.253418,"street":"桃園市蘆竹區大竹北路90-66號","latitude":25.0317612},"name":"卡司．蒂菈樂園 Castella Land","ontime":{"sun_1_close":"17:00","sat_1_close":"17:00","sun_1_open":"09:00","fri_1_close":"17:00","thu_1_open":"09:00","tue_1_close":"17:00","sat_1_open":"09:00","wed_1_open":"09:00","wed_1_close":"17:00","tue_1_open":"09:00","fri_1_open":"09:00","thu_1_close":"17:00"},"address":"桃園市蘆竹區大竹北路90-66號","lat":25.0317612,"long":121.253418,"area":"Taoyüan","city":"Taoyüan"},{"_id":{"$oid":"5878e844b97e4a09abd6b198"},"phone":"03-255-1999","id":"511539948946937","location":{"city":"Taoyüan","zip":"338","country":"Taiwan","longitude":121.253418,"street":"桃園市蘆竹區大竹北路90-66號","latitude":25.0317612},"name":"卡司．蒂菈樂園 Castella Land","ontime":{"sun_1_close":"17:00","sat_1_close":"17:00","sun_1_open":"09:00","fri_1_close":"17:00","thu_1_open":"09:00","tue_1_close":"17:00","sat_1_open":"09:00","wed_1_open":"09:00","wed_1_close":"17:00","tue_1_open":"09:00","fri_1_open":"09:00","thu_1_close":"17:00"},"address":"桃園市蘆竹區大竹北路90-66號","lat":25.0317612,"long":121.253418,"area":"Taoyüan","city":"Taoyüan"},{"_id":{"$oid":"5878e844b97e4a09abd6b19a"},"phone":"0960296585","id":"450896641698771","location":{"city":"Tainan","zip":"708","country":"Taiwan","longitude":120.16461077499,"street":"安平路75巷18弄2號","latitude":22.998391468146},"name":"安平貓小巴","ontime":{"sun_1_close":"19:00","sat_1_open":"12:00","sat_1_close":"19:00","sun_1_open":"12:00"},"address":"安平路75巷18弄2號","lat":22.998391468146,"long":120.16461077499,"area":"Tainan","city":"Tainan"},{"_id":{"$oid":"5878e844b97e4a09abd6b19b"},"phone":"02-2697-1589","id":"1641578432776826","location":{"city":"Hsichih","zip":"221","country":"Taiwan","longitude":121.64763582357,"street":"新台五路一段99號","latitude":25.062482755},"name":"貓樂貓咖啡","ontime":{"sun_1_close":"21:30","sat_1_close":"22:00","sun_1_open":"11:00","fri_1_close":"22:00","thu_1_open":"11:00","tue_1_close":"21:30","sat_1_open":"11:00","mon_1_open":"11:00","mon_1_close":"21:30","wed_1_open":"11:00","wed_1_close":"21:30","tue_1_open":"11:00","fri_1_open":"11:00","thu_1_close":"21:30"},"address":"新台五路一段99號","lat":25.062482755,"long":121.64763582357,"area":"Hsichih","city":"Hsichih"},{"_id":{"$oid":"5878e844b97e4a09abd6b19c"},"phone":"03-4778577","id":"335841803105419","location":{"city":"Taoyüan","zip":"327","country":"Taiwan","longitude":121.12809184308,"street":"桃園市新屋區九斗里四鄰五號","latitude":24.960146504277},"name":"九斗村休閒有機農場","ontime":{"sun_1_close":"17:30","sat_1_close":"17:30","sun_1_open":"08:30","fri_1_close":"17:00","thu_1_open":"08:30","tue_1_close":"17:00","sat_1_open":"08:30","mon_1_open":"08:30","mon_1_close":"17:00","wed_1_open":"08:30","wed_1_close":"17:00","tue_1_open":"08:30","fri_1_open":"08:30","thu_1_close":"17:00"},"address":"桃園市新屋區九斗里四鄰五號","lat":24.960146504277,"long":121.12809184308,"area":"Taoyüan","city":"Taoyüan"},{"_id":{"$oid":"5878e844b97e4a09abd6b19d"},"id":"420290698178205","phone":"0986603303","location":{"city":"Taitung","zip":"950","country":"Taiwan","longitude":121.12426757812,"street":"台東市樂利路1號","latitude":22.797903148053},"name":"芹菜芋頭親子民宿","address":"台東市樂利路1號","lat":22.797903148053,"long":121.12426757812,"area":"Taitung","city":"Taitung"},{"_id":{"$oid":"5878e844b97e4a09abd6b19e"},"id":"700984673293385","phone":"0953-516906","location":{"city":"Shenghuli","zip":"269","country":"Taiwan","longitude":121.79306030273,"street":"冬山鄉富農路一段","latitude":24.640776125486},"name":"米妞的假期","address":"冬山鄉富農路一段","lat":24.640776125486,"long":121.79306030273,"area":"Shenghuli","city":"Shenghuli"},{"_id":{"$oid":"5878e844b97e4a09abd6b19f"},"id":"1498014520445577","name":"Nice拔拔-親子旅遊趣"},{"_id":{"$oid":"5878e844b97e4a09abd6b1a0"},"phone":"033197200#6401","id":"1649515518613908","location":{"city":"Taoyüan","zip":"333","country":"Taiwan","longitude":121.3718185,"street":"舊路村3鄰長青路9號","latitude":25.0205002},"name":"長庚養生文化村運動中心","ontime":{"sun_1_close":"21:00","sat_1_close":"21:00","sun_1_open":"09:30","fri_1_close":"21:00","thu_1_open":"13:30","tue_1_close":"21:00","sat_1_open":"09:30","wed_1_open":"13:30","wed_1_close":"21:00","tue_1_open":"13:30","fri_1_open":"13:30","thu_1_close":"21:00"},"address":"舊路村3鄰長青路9號","lat":25.0205002,"long":121.3718185,"area":"Taoyüan","city":"Taoyüan"},{"_id":{"$oid":"5878e844b97e4a09abd6b1a1"},"phone":"035399967","id":"445787255498328","location":{"city":"Hsinchu","zip":"300","country":"Taiwan","longitude":120.93907,"street":"新竹市香山區元培街323巷5號","latitude":24.77943},"name":"Luau ・ Pizza    柴寮披薩","ontime":{"sun_1_close":"19:30","sat_1_close":"19:30","sun_1_open":"11:00","fri_1_close":"19:30","thu_1_open":"11:30","tue_1_close":"19:30","sat_1_open":"11:00","wed_1_open":"11:30","wed_1_close":"19:30","tue_1_open":"11:30","fri_1_open":"11:30","thu_1_close":"19:30"},"address":"新竹市香山區元培街323巷5號","lat":24.77943,"long":120.93907,"area":"Hsinchu","city":"Hsinchu"},{"_id":{"$oid":"5878e844b97e4a09abd6b1a2"},"id":"497896150257651","phone":"02-2805-6610 粉絲頁提供最新課程活動息,歡迎按讚加入或追蹤^^","location":{"city":"Xinbei","zip":"251","country":"Taiwan","longitude":121.42812214661,"street":"淡水區新民街一段138巷7號","latitude":25.189436131717},"name":"公司田溪程氏古厝 Chance Garden","address":"淡水區新民街一段138巷7號","lat":25.189436131717,"long":121.42812214661,"area":"Xinbei","city":"Xinbei"},{"_id":{"$oid":"5878e844b97e4a09abd6b1a3"},"phone":"048923339","id":"579853915399817","location":{"city":"Changhua","zip":"523","country":"Taiwan","longitude":120.46381115913,"street":"彰化縣埤頭鄉斗苑西路92號","latitude":23.891272300734},"name":"彰化百寶村","ontime":{"sun_1_close":"18:00","sat_1_close":"18:00","sun_1_open":"09:00","fri_1_close":"17:00","thu_1_open":"09:00","tue_1_close":"17:00","sat_1_open":"09:00","mon_1_open":"09:00","mon_1_close":"17:00","wed_1_open":"09:00","wed_1_close":"17:00","tue_1_open":"09:00","fri_1_open":"09:00","thu_1_close":"17:00"},"address":"彰化縣埤頭鄉斗苑西路92號","lat":23.891272300734,"long":120.46381115913,"area":"Changhua","city":"Changhua"},{"_id":{"$oid":"5878e844b97e4a09abd6b1a4"},"phone":"049-2702310","id":"196663033708708","location":{"city":"Nantouhsien","zip":"556","country":"Taiwan","longitude":120.92257984,"street":"南投縣信義鄉東埔村30號","latitude":23.55756187439},"name":"蟬說 ChanShuo","ontime":{"sun_1_close":"21:30","sat_1_close":"21:30","sun_1_open":"08:00","fri_1_close":"21:30","thu_1_open":"08:00","tue_1_close":"21:30","sat_1_open":"08:00","mon_1_open":"08:00","mon_1_close":"21:30","wed_1_open":"08:00","wed_1_close":"21:30","tue_1_open":"08:00","fri_1_open":"08:00","thu_1_close":"21:30"},"address":"南投縣信義鄉東埔村30號","lat":23.55756187439,"long":120.92257984,"area":"Nantouhsien","city":"Nantouhsien"},{"_id":{"$oid":"5878e844b97e4a09abd6b1a5"},"phone":"049-2702310","id":"196663033708708","location":{"city":"Nantouhsien","zip":"556","country":"Taiwan","longitude":120.92257984,"street":"南投縣信義鄉東埔村30號","latitude":23.55756187439},"name":"蟬說 ChanShuo","ontime":{"sun_1_close":"21:30","sat_1_close":"21:30","sun_1_open":"08:00","fri_1_close":"21:30","thu_1_open":"08:00","tue_1_close":"21:30","sat_1_open":"08:00","mon_1_open":"08:00","mon_1_close":"21:30","wed_1_open":"08:00","wed_1_close":"21:30","tue_1_open":"08:00","fri_1_open":"08:00","thu_1_close":"21:30"},"address":"南投縣信義鄉東埔村30號","lat":23.55756187439,"long":120.92257984,"area":"Nantouhsien","city":"Nantouhsien"},{"_id":{"$oid":"5878e844b97e4a09abd6b1a6"},"phone":"0988253618","id":"111004745646276","location":{"city":"Taitung","zip":"954","country":"Taiwan","longitude":121.04321,"street":"台東縣卑南鄉溫泉村民生22號","latitude":22.7399},"name":"朗.克徠爵的風車教堂","ontime":{"sun_1_close":"17:00","sat_1_close":"17:00","sun_1_open":"14:00","fri_1_close":"17:00","thu_1_open":"14:00","tue_1_close":"17:00","sat_1_open":"14:00","mon_1_open":"14:00","mon_1_close":"17:00","wed_1_open":"14:00","wed_1_close":"17:00","tue_1_open":"14:00","fri_1_open":"14:00","thu_1_close":"17:00"},"address":"台東縣卑南鄉溫泉村民生22號","lat":22.7399,"long":121.04321,"area":"Taitung","city":"Taitung"},{"_id":{"$oid":"5878e844b97e4a09abd6b1a7"},"phone":"(07) 343-1227","id":"339810326216694","location":{"city":"Kaohsiung","zip":"813","country":"Taiwan","longitude":120.30371477572,"street":"博愛三路35號","latitude":22.671360591787},"name":"Charlie Brown Café Taiwan","ontime":{"sun_1_close":"22:00","sat_1_close":"22:00","sun_1_open":"10:00","fri_1_close":"22:00","thu_1_open":"10:00","tue_1_close":"22:00","sat_1_open":"10:00","mon_1_open":"10:00","mon_1_close":"22:00","wed_1_open":"10:00","wed_1_close":"22:00","tue_1_open":"10:00","fri_1_open":"10:00","thu_1_close":"22:00"},"address":"博愛三路35號","lat":22.671360591787,"long":120.30371477572,"area":"Kaohsiung","city":"Kaohsiung"},